LATITUDE,LONGITUDE,DISTRICT_CODE,ADDRESS,CITY,DISTRICT_NAME,SCHOOL_CODE,SCHOOL_NAME,SCHOOL_LEVEL,ENROLL_16_17,AEC,CHARTER,MINORITY_PERCENT,FRL_PERCENT,SPED_PERCENT,ELL_PERCENT,17_SPF_FINAL,17_SPF_SCORE
39.9694071,-105.5174385,480,#1 SUNDOWN TRAIL,NEDERLAND,BOULDER VALLEY RE 2,6208,NEDERLAND ELEMENTARY SCHOOL,E,287,N,N,0.11,0.27,0.18,0.04,Performance,0.76
39.6446973,-106.6061809,910,0022 MEILE LANE,EDWARDS,EAGLE COUNTY RE 50,2530,EDWARDS ELEMENTARY SCHOOL,E,305,N,N,0.64,0.50,0.13,0.50,Performance,0.69
39.6423024,-106.5723188,910,0256 CEMEMTARY ROAD,EDWARDS,EAGLE COUNTY RE 50,205,RED CANYON HIGH SCHOOL,H,172,Y,N,0.76,0.57,0.17,0.38,Improvement,0.30
39.4451643,-108.0180112,1220,0364 SIPRELLE DRIVE,PARACHUTE,GARFIELD 16,8274,GRAND VALLEY MIDDLE SCHOOL,M,260,N,N,0.42,0.54,0.07,0.18,Performance,0.56
39.6255839,-106.4981048,8001,0375 YODER AVE,AVON,CHARTER SCHOOL INSTITUTE,653,STONE CREEK SCHOOL,E,193,N,Y,0.29,0.15,0.15,0.20,Performance,0.73
39.6255839,-106.4981048,8001,0375 YODER AVE,AVON,CHARTER SCHOOL INSTITUTE,653,STONE CREEK SCHOOL,M,91,N,Y,0.29,0.15,0.15,0.20,Performance,0.83
39.5957635,-106.0119678,3000,0727 COVE BOULEVARD,DILLON,SUMMIT RE-1,8385,SUMMIT COVE ELEMENTARY SCHOOL,E,282,N,N,0.25,0.23,0.07,0.15,Performance,0.65
39.4279183,-108.0452825,1220,0741 TAMARISK TRAIL,PARACHUTE,GARFIELD 16,3578,BEA UNDERWOOD ELEMENTARY SCHOOL,E,337,N,N,0.41,0.61,0.07,0.26,Improvement,0.49
39.9298726,-105.0753738,480,1 EAGLE WAY,BROOMFIELD,BOULDER VALLEY RE 2,1070,BROOMFIELD HIGH SCHOOL,H,1605,N,N,0.28,0.16,0.07,0.03,Performance,0.70
37.9251706,-104.9291208,2700,1 HIGH SCHOOL DRIVE,RYE,PUEBLO COUNTY 70,7534,RYE HIGH SCHOOL,H,242,N,N,0.21,0.35,0.15,N/A,Performance,0.70
39.5703609,-105.1614832,1420,1 WHITE OAK DRIVE,LITTLETON,JEFFERSON COUNTY R-1,950,BRADFORD PRIMARY SCHOOL,E,436,N,N,0.11,N/A,0.08,0.02,Performance,1.00
40.4372869,-104.7923946,3120,100 71ST AVENUE,GREELEY,GREELEY 6,6364,NORTHRIDGE HIGH SCHOOL,H,1158,N,N,0.76,0.71,0.14,0.22,Improvement,0.50
40.3297064,-104.866782,3110,100 BROAD STREET,MILLIKEN,JOHNSTOWN-MILLIKEN RE-5J,5896,MILLIKEN ELEMENTARY SCHOOL,E,568,N,N,0.48,0.47,0.13,0.10,Improvement,0.49
39.4534821,-108.0537529,1220,100 EAST SECOND STREET,PARACHUTE,GARFIELD 16,3585,GRAND VALLEY CENTER FOR FAMILY LEARNING,E,265,N,N,0.39,0.59,0.07,0.14,Performance,N/A
39.6236255,-106.9510483,910,100 GRUNDEL WAY,GYPSUM,EAGLE COUNTY RE 50,37,RED HILL ELEMENTARY SCHOOL,E,387,N,N,0.65,0.44,0.15,0.37,Performance,0.66
38.4222603,-105.0199322,1150,100 ILLINOIS,PENROSE,FREMONT RE-2,6858,PENROSE ELEMENTARY SCHOOL,E,255,N,N,0.20,0.57,0.19,0.02,Performance,0.59
38.9942473,-105.0459708,3020,100 Panther Way,WOODLAND PARK,WOODLAND PARK RE-2,9692,GATEWAY ELEMENTARY SCHOOL,E,320,N,N,0.23,0.39,0.07,0.07,Performance,0.58
40.2194203,-105.2652753,470,100 SOUTH 2ND AVENUE,LYONS,ST VRAIN VALLEY RE 1J,5368,LYONS MIDDLE/SENIOR HIGH SCHOOL,H,215,N,N,0.15,0.17,0.11,0.03,Performance,0.86
40.2194203,-105.2652753,470,100 SOUTH 2ND AVENUE,LYONS,ST VRAIN VALLEY RE 1J,5368,LYONS MIDDLE/SENIOR HIGH SCHOOL,M,196,N,N,0.15,0.17,0.11,0.03,Performance,0.65
37.3442204,-108.293333,2070,100 SOUTH BEECH,MANCOS,MANCOS RE-6,5450,MANCOS MIDDLE SCHOOL,M,105,N,N,0.30,0.56,0.20,0.09,Insufficient State Data,N/A
40.5224717,-104.7314582,3085,100 SOUTH MOUNTAIN VIEW DRIVE,EATON,EATON RE-2,754,BENJAMIN EATON ELEMENTARY SCHOOL,E,380,N,N,0.26,0.35,0.08,0.08,Performance,0.72
38.04267,-103.7362666,2530,100 WEST WASHINGTON,ROCKY FORD,ROCKY FORD R-2,7442,ROCKY FORD JUNIOR/SENIOR HIGH SCHOOL,H,227,N,N,0.73,0.74,0.10,0.06,Performance,0.57
38.04267,-103.7362666,2530,100 WEST WASHINGTON,ROCKY FORD,ROCKY FORD R-2,7442,ROCKY FORD JUNIOR/SENIOR HIGH SCHOOL,M,145,N,N,0.73,0.74,0.10,0.06,Improvement,0.51
40.1772585,-105.0582978,470,1000 BUTTON ROCK DRIVE,LONGMONT,ST VRAIN VALLEY RE 1J,8903,TRAIL RIDGE MIDDLE SCHOOL,M,708,N,N,0.61,0.54,0.12,0.24,Improvement,0.47
39.7322711,-104.9912717,880,1000 CHEROKEE STREET,DENVER,DENVER COUNTY 1,1489,COMPASSION ROAD ACADEMY,H,172,Y,N,0.82,0.81,0.16,0.22,Performance,0.25
40.5755562,-105.0620351,1550,1000 EAST LOCUST STREET,FORT COLLINS,POUDRE R-1,5014,LAUREL ELEMENTARY SCHOOL,E,473,N,N,0.50,0.58,0.13,0.20,Performance,0.68
39.6421667,-106.5753469,910,1000 MILLER RANCH ROAD,EDWARDS,EAGLE COUNTY RE 50,793,BERRY CREEK MIDDLE SCHOOL,M,340,N,N,0.73,0.59,0.14,0.48,Performance,0.54
40.116517,-102.7226339,3200,1000 SOUTH ALBANY,YUMA,YUMA 1,9799,YUMA HIGH SCHOOL,H,214,N,N,0.56,0.54,0.12,0.33,Improvement,0.51
39.698288,-104.921193,880,1000 SOUTH HOLLY STREET,DENVER,DENVER COUNTY 1,5716,MC MEEN ELEMENTARY SCHOOL,E,637,N,N,0.74,0.77,0.09,0.43,Performance,0.59
40.4712401,-104.908351,3100,1000 STONE MOUNTAIN DRIVE,WINDSOR,WINDSOR RE-4,7958,SKYVIEW ELEMENTARY SCHOOL,E,377,N,N,0.23,0.24,0.13,N/A,Performance,0.70
39.9281236,-105.0821311,480,1000 WEST 10TH AVENUE,BROOMFIELD,BOULDER VALLEY RE 2,4792,KOHL ELEMENTARY SCHOOL,E,485,N,N,0.26,0.22,0.16,0.02,Improvement,0.50
39.2446378,-106.3026523,1510,1000 WEST 4TH STREET,LEADVILLE,LAKE COUNTY R-1,4904,LAKE COUNTY HIGH SCHOOL,H,292,N,N,0.75,0.64,0.11,0.30,Performance,0.57
39.2446378,-106.3026523,1510,1000 WEST 4TH STREET,LEADVILLE,LAKE COUNTY R-1,4904,LAKE COUNTY HIGH SCHOOL,M,132,N,N,0.75,0.64,0.11,0.30,Performance,0.79
39.2465902,-106.3059876,1510,1000 WEST 6TH STREET,LEADVILLE,LAKE COUNTY R-1,4901,LAKE COUNTY INTERMEDIATE SCHOOL,E,229,N,N,0.76,0.73,0.12,0.49,Performance,0.56
39.2465902,-106.3059876,1510,1000 WEST 6TH STREET,LEADVILLE,LAKE COUNTY R-1,4901,LAKE COUNTY INTERMEDIATE SCHOOL,M,73,N,N,0.76,0.73,0.12,0.49,Performance,0.56
40.2860282,-104.7782592,3080,1001 BIRCH STREET,GILCREST,WELD COUNTY RE-1,9032,VALLEY HIGH SCHOOL,H,567,N,N,0.58,0.46,0.08,0.15,Performance,0.53
38.8673087,-104.8043407,1010,1001 EAST VAN BUREN STREET,COLORADO SPRINGS,COLORADO SPRINGS 11,4090,MANN MIDDLE SCHOOL,M,485,N,N,0.50,0.74,0.14,0.06,Priority Improvement,0.36
40.03542,-105.2839685,480,1001 HAWTHORNE AVENUE,BOULDER,BOULDER VALLEY RE 2,3022,FOOTHILL ELEMENTARY SCHOOL,E,541,N,N,0.18,0.11,0.09,0.07,Performance,0.75
38.2274235,-103.7566111,770,1001 MAIN,ORDWAY,CROWLEY COUNTY RE-1-J,2054,CROWLEY COUNTY WARD INTERMEDIATE,E,63,N,N,0.47,0.80,0.17,N/A,Improvement,0.46
38.2274235,-103.7566111,770,1001 MAIN,ORDWAY,CROWLEY COUNTY RE-1-J,2054,CROWLEY COUNTY WARD INTERMEDIATE,M,42,N,N,0.47,0.80,0.17,N/A,Improvement,0.46
39.734428,-105.195231,1420,1001 ULYSSES STREET,GOLDEN,JEFFERSON COUNTY R-1,694,BELL MIDDLE SCHOOL,M,785,N,N,0.21,0.25,0.09,0.04,Performance,0.67
39.8501369,-104.9979449,8001,1001 W 84TH STREET,FEDERAL HEIGHTS,CHARTER SCHOOL INSTITUTE,654,THE PINNACLE CHARTER SCHOOL ELEMENTARY,E,980,N,Y,0.82,0.78,0.07,0.55,Performance,0.63
39.8501469,-104.9979649,8001,1001 W 84TH STREET,FEDERAL HEIGHTS,CHARTER SCHOOL INSTITUTE,6913,THE PINNACLE CHARTER SCHOOL MIDDLE,M,510,N,Y,0.84,0.74,0.09,0.42,Performance,0.61
39.8501669,-104.9979849,8001,1001 W 84TH STREET,FEDERAL HEIGHTS,CHARTER SCHOOL INSTITUTE,6914,THE PINNACLE CHARTER SCHOOL HIGH,H,515,N,Y,0.83,0.72,0.04,0.32,Performance,0.71
40.2094239,-104.8240417,3080,1004 MAIN STREET,PLATTEVILLE,WELD COUNTY RE-1,7058,SOUTH VALLEY MIDDLE SCHOOL,M,198,N,N,0.62,0.51,0.06,0.17,Performance,0.70
39.698919,-104.8396058,180,1009 SOUTH UVALDA ST,AURORA,ADAMS-ARAPAHOE 28J,464,AURORA HILLS MIDDLE SCHOOL,M,908,N,N,0.89,0.78,0.14,0.40,Priority Improvement,0.39
38.977629,-104.7760042,1040,10095 LEXINGTON DRIVE,COLORADO SPRINGS,ACADEMY 20,6158,MOUNTAIN VIEW ELEMENTARY SCHOOL,E,589,N,N,0.26,0.08,0.08,0.02,Performance,0.92
40.6395884,-104.7559179,3145,101 2ND STREET,PIERCE,AULT-HIGHLAND RE-9,3958,HIGHLAND ELEMENTARY SCHOOL,E,392,N,N,0.33,0.50,0.08,0.14,Performance,0.64
39.5811007,-107.5320115,1195,101 ALDER AVENUE,NEW CASTLE,GARFIELD RE-2,4510,KATHRYN SENOR ELEMENTARY SCHOOL,E,276,N,N,0.42,0.44,0.08,0.26,Performance,0.57
38.3223586,-104.7428791,2700,101 CIVIC CENTER DRIVE,PUEBLO WEST,PUEBLO COUNTY 70,7879,SWALLOWS CHARTER ACADEMY HIGH SCHOOL,H,154,N,Y,0.27,0.29,0.07,0.05,Performance,0.65
40.0003568,-105.0901107,480,101 E. BASELINE ROAD,LAFAYETTE,BOULDER VALLEY RE 2,6962,PIONEER BILINGUAL ELEMENTARY SCHOOL,E,493,N,N,0.66,0.46,0.15,0.34,Improvement,0.48
39.6606637,-106.0833896,3000,101 HAMILTON CREEK ROAD,SILVERTHORNE,SUMMIT RE-1,8376,SILVERTHORNE ELEMENTARY SCHOOL,E,340,N,N,0.75,0.69,0.10,0.54,Improvement,0.48
39.9984675,-105.0958155,480,101 NORTH BERMONT AVENUE,LAFAYETTE,BOULDER VALLEY RE 2,4874,LAFAYETTE ELEMENTARY SCHOOL,E,664,N,N,0.26,0.19,0.13,0.07,Performance,0.73
37.0180707,-103.8836282,1750,101 SADDLEROCK DRIVE,BRANSON,BRANSON REORGANIZED 82,978,BRANSON SCHOOL,E,33,N,N,0.35,0.61,N/A,N/A,Improvement,0.46
37.0180707,-103.8836282,1750,101 SADDLEROCK DRIVE,BRANSON,BRANSON REORGANIZED 82,978,BRANSON SCHOOL,H,12,N,N,0.35,0.61,N/A,N/A,Performance,1.00
37.0180707,-103.8836282,1750,101 SADDLEROCK DRIVE,BRANSON,BRANSON REORGANIZED 82,978,BRANSON SCHOOL,M,20,N,N,0.35,0.61,N/A,N/A,Priority Improvement,0.40
37.6906928,-108.0317581,890,101 SOUTH GLASGOW AVENUE,RICO,DOLORES COUNTY RE NO.2,50,RICO ELEMENTARY SCHOOL,E,8,N,N,0.00,N/A,N/A,N/A,Insufficient State Data,N/A
39.735832,-104.8704509,180,10100 EAST 13TH AVE,AURORA,ADAMS-ARAPAHOE 28J,9396,AURORA WEST COLLEGE PREPARATORY ACADEMY,H,382,N,N,0.95,0.86,0.10,0.55,Performance,0.61
39.735832,-104.8704509,180,10100 EAST 13TH AVE,AURORA,ADAMS-ARAPAHOE 28J,9396,AURORA WEST COLLEGE PREPARATORY ACADEMY,M,875,N,N,0.95,0.86,0.10,0.55,Priority Improvement,0.40
38.7672857,-102.792034,510,102  W. 5TH AVENUE,KIT CARSON,KIT CARSON R-1,4738,KIT CARSON ELEMENTARY SCHOOL,E,60,N,N,0.23,0.56,N/A,N/A,Insufficient State Data,N/A
38.7672857,-102.792034,510,102 5TH AVENUE,KIT CARSON,KIT CARSON R-1,4742,KIT CARSON JUNIOR-SENIOR HIGH SCHOOL,H,38,N,N,0.21,0.50,N/A,N/A,Performance,0.81
38.7672857,-102.792034,510,102 5TH AVENUE,KIT CARSON,KIT CARSON R-1,4742,KIT CARSON JUNIOR-SENIOR HIGH SCHOOL,M,28,N,N,0.21,0.50,N/A,N/A,N/A,N/A
40.9907975,-102.2664663,2862,102 WEST 6TH STREET,JULESBURG,JULESBURG RE-1,4492,JULESBURG HIGH SCHOOL,H,69,N,N,0.39,0.55,0.11,N/A,Performance,0.71
40.9907975,-102.2664663,2862,102 WEST 6TH STREET,JULESBURG,JULESBURG RE-1,4492,JULESBURG HIGH SCHOOL,M,40,N,N,0.39,0.55,0.11,N/A,N/A,N/A
40.1666672,-105.109067,470,1020 4TH AVENUE,LONGMONT,ST VRAIN VALLEY RE 1J,1434,CENTRAL ELEMENTARY SCHOOL,E,411,N,N,0.32,0.35,0.10,0.12,Performance,0.58
39.851095,-104.9731167,20,1020 DAWSON DRIVE,THORNTON,ADAMS 12 FIVE STAR SCHOOLS,5706,MC ELWAIN ELEMENTARY SCHOOL,E,420,N,N,0.86,0.80,0.10,0.45,Improvement,0.44
39.731543,-104.815011,180,1020 EAGLE ST,AURORA,ADAMS-ARAPAHOE 28J,2618,ELKHART ELEMENTARY SCHOOL,E,645,N,N,0.96,0.95,0.14,0.72,Performance,0.67
39.5313836,-104.9617788,900,10200 SOUTH PIEDMONT DRIVE,HIGHLANDS RANCH,DOUGLAS COUNTY RE 1,8382,SUMMIT VIEW ELEMENTARY SCHOOL,E,463,N,N,0.19,0.04,0.13,0.02,Performance,0.77
39.5313836,-104.9617788,900,10200 SOUTH PIEDMONT DRIVE,HIGHLANDS RANCH,DOUGLAS COUNTY RE 1,8382,SUMMIT VIEW ELEMENTARY SCHOOL,M,73,N,N,0.19,0.04,0.13,0.02,Performance,0.77
39.8772481,-105.1123779,1420,10200 W 100TH AVENUE,WESTMINSTER,JEFFERSON COUNTY R-1,9299,WAYNE CARLE MIDDLE SCHOOL,M,429,N,N,0.25,0.25,0.11,0.05,Performance,0.73
38.0715899,-103.2301594,290,1021 2ND STREET,LAS ANIMAS,LAS ANIMAS RE-1,4986,LAS ANIMAS JUNIOR HIGH SCHOOL,M,88,N,N,0.34,0.86,0.23,N/A,Performance,0.73
37.1622504,-104.5081024,1580,1021 PIERCE STREET,TRINIDAD,TRINIDAD 1,2481,ECKHART ELEMENTARY SCHOOL,E,144,N,N,0.87,0.83,0.17,N/A,Performance,N/A
38.978734,-104.774354,1040,10215 LEXINGTON DRIVE,COLORADO SPRINGS,ACADEMY 20,74,CHALLENGER MIDDLE SCHOOL,M,879,N,N,0.26,0.07,0.08,0.01,Performance,0.74
38.8655165,-104.8674016,1010,1023 NORTH 31ST STREET,COLORADO SPRINGS,COLORADO SPRINGS 11,4138,HOWBERT ELEMENTARY SCHOOL,E,293,N,N,0.29,0.55,0.13,0.03,Improvement,0.50
39.531514,-104.7659718,8001,10235 PARKGLENN WAY,PARKER,CHARTER SCHOOL INSTITUTE,2196,COLORADO EARLY COLLEGES - PARKER,H,484,N,Y,0.21,N/A,0.01,N/A,Performance,0.79
39.7186772,-104.8692185,180,10251 EAST 1ST AVE,AURORA,ADAMS-ARAPAHOE 28J,458,AURORA ACADEMY CHARTER SCHOOL,E,398,N,Y,0.76,0.57,0.06,0.36,Performance,0.60
39.7186772,-104.8692185,180,10251 EAST 1ST AVE,AURORA,ADAMS-ARAPAHOE 28J,458,AURORA ACADEMY CHARTER SCHOOL,M,147,N,Y,0.76,0.57,0.06,0.36,Performance,0.82
38.979791,-104.5740267,1110,10255 LAMBERT ROAD,PEYTON,FALCON 49,2908,FALCON HIGH SCHOOL,H,1191,N,N,0.31,0.18,0.10,0.01,Performance,0.59
39.8855503,-105.1119133,1420,10255 WEST 104TH DRIVE,WESTMINSTER,JEFFERSON COUNTY R-1,9678,WITT ELEMENTARY SCHOOL,E,322,N,N,0.30,0.42,0.13,0.06,Performance,0.61
39.8855503,-105.1119133,1420,10255 WEST 104TH DRIVE,WESTMINSTER,JEFFERSON COUNTY R-1,9678,WITT ELEMENTARY SCHOOL,M,44,N,N,0.30,0.42,0.13,0.06,Performance,0.61
40.1506594,-104.9576408,470,10290 NEIGHBORS PARKWAY,FIRESTONE,ST VRAIN VALLEY RE 1J,1245,CENTENNIAL ELEMENTARY,E,633,N,N,0.35,0.32,0.15,0.11,Performance,0.58
39.9859992,-105.112629,480,10300 SOUTH BOULDER ROAD,LAFAYETTE,BOULDER VALLEY RE 2,1380,CENTAURUS HIGH SCHOOL,H,1140,N,N,0.40,0.32,0.15,0.11,Improvement,0.63
39.8832469,-105.0008934,20,10335 CROKE DRIVE,NORTHGLENN,ADAMS 12 FIVE STAR SCHOOLS,4000,HILLCREST ELEMENTARY SCHOOL,E,489,N,N,0.83,0.84,0.14,0.48,Performance,0.56
39.5274069,-104.935085,900,10345 ARROWWOOD DRIVE,HIGHLANDS RANCH,DOUGLAS COUNTY RE 1,354,ARROWWOOD ELEMENTARY SCHOOL,E,343,N,N,0.30,0.21,0.18,0.08,Performance,0.59
39.5274069,-104.935085,900,10345 ARROWWOOD DRIVE,HIGHLANDS RANCH,DOUGLAS COUNTY RE 1,354,ARROWWOOD ELEMENTARY SCHOOL,M,50,N,N,0.30,0.21,0.18,0.08,Performance,0.59
39.9303699,-105.0593954,480,1035 BIRCH,BROOMFIELD,BOULDER VALLEY RE 2,872,BIRCH ELEMENTARY SCHOOL,E,422,N,N,0.33,0.33,0.16,0.13,Performance,0.80
39.6431175,-105.1123455,1420,10359 W NASSAU AVENUE,DENVER,JEFFERSON COUNTY R-1,2120,D'EVELYN JUNIOR/SENIOR HIGH SCHOOL,H,625,N,N,0.23,0.05,0.01,0.01,Performance,0.92
39.6431175,-105.1123455,1420,10359 W NASSAU AVENUE,DENVER,JEFFERSON COUNTY R-1,2120,D'EVELYN JUNIOR/SENIOR HIGH SCHOOL,M,400,N,N,0.23,0.05,0.01,0.01,Performance,0.56
39.7785151,-105.1139188,1420,10399 WEST 44TH AVENUE,WHEAT RIDGE,JEFFERSON COUNTY R-1,1869,COMPASS MONTESSORI - WHEAT RIDGE CHARTER SCHOOL,E,254,N,Y,0.19,N/A,0.11,N/A,Performance,0.58
39.7785151,-105.1139188,1420,10399 WEST 44TH AVENUE,WHEAT RIDGE,JEFFERSON COUNTY R-1,1869,COMPASS MONTESSORI - WHEAT RIDGE CHARTER SCHOOL,M,30,N,Y,0.19,N/A,0.11,N/A,Performance,0.58
39.3688539,-104.7900854,900,104 LOVINGTON STREET,CASTLE ROCK,DOUGLAS COUNTY RE 1,2965,FLAGSTONE ELEMENTARY SCHOOL,E,462,N,N,0.22,0.13,0.12,0.03,Performance,0.65
39.3688539,-104.7900854,900,104 LOVINGTON STREET,CASTLE ROCK,DOUGLAS COUNTY RE 1,2965,FLAGSTONE ELEMENTARY SCHOOL,M,72,N,N,0.22,0.13,0.12,0.03,Performance,0.65
38.2732956,-104.6066015,2700,104 WEST 7TH,PUEBLO,PUEBLO COUNTY 70,8810,THE CONNECT CHARTER SCHOOL,M,269,N,Y,0.39,0.06,N/A,N/A,Performance,0.93
38.0835293,-102.6196128,2660,104 WEST PARK,LAMAR,LAMAR RE-2,4956,LAMAR MIDDLE SCHOOL,M,339,N,N,0.64,0.73,0.11,0.09,Improvement,0.42
38.530206,-106.003306,8001,1040 I STREET,SALIDA,CHARTER SCHOOL INSTITUTE,8061,SALIDA MONTESSORI CHARTER SCHOOL,E,62,N,Y,0.07,0.34,N/A,N/A,Performance,0.75
38.530206,-106.003306,8001,1040 I STREET,SALIDA,CHARTER SCHOOL INSTITUTE,8061,SALIDA MONTESSORI CHARTER SCHOOL,M,21,N,Y,0.07,0.34,N/A,N/A,Performance,0.63
40.176364,-105.1199566,470,1040 SUNSET STREET,LONGMONT,ST VRAIN VALLEY RE 1J,5282,LONGMONT HIGH SCHOOL,H,1294,N,N,0.40,0.43,0.13,0.13,Performance,0.58
39.5296669,-105.3087595,1420,10441 COUNTY HIGHWAY 73,CONIFER,JEFFERSON COUNTY R-1,1886,CONIFER SENIOR HIGH SCHOOL,H,833,N,N,0.12,0.15,0.08,N/A,Performance,0.87
38.4714268,-107.8675837,2180,1045 SOUTH CASCADE,MONTROSE,MONTROSE COUNTY RE-1J,7106,POMONA ELEMENTARY SCHOOL,E,386,N,N,0.35,0.49,0.16,0.08,Priority Improvement,0.41
39.5277902,-104.8065835,900,10450 STONEGATE PARKWAY,PARKER,DOUGLAS COUNTY RE 1,6938,PINE GROVE ELEMENTARY SCHOOL,E,508,N,N,0.23,0.05,0.13,0.03,Performance,0.77
39.5277902,-104.8065835,900,10450 STONEGATE PARKWAY,PARKER,DOUGLAS COUNTY RE 1,6938,PINE GROVE ELEMENTARY SCHOOL,M,84,N,N,0.23,0.05,0.13,0.03,Performance,0.77
39.753318,-104.8664583,180,10455 EAST 25TH AVENUE,AURORA,ADAMS-ARAPAHOE 28J,2998,FLETCHER COMMUNITY SCHOOL,E,368,N,N,0.98,0.86,0.17,0.65,Performance,0.62
39.753358,-104.8664183,180,10455 EAST 25TH AVENUE,AURORA,ADAMS-ARAPAHOE 28J,7233,ROCKY MOUNTAIN PREP - FLETCHER CAMPUS,E,45,N,Y,0.84,N/A,N/A,N/A,Insufficient State Data,N/A
38.3045703,-104.780396,2700,1047 CAMINO DE BRAVO,PUEBLO WEST,PUEBLO COUNTY 70,25,SKY VIEW MIDDLE SCHOOL,M,628,N,N,0.37,0.28,0.13,0.02,Improvement,0.52
38.9820371,-104.5894787,1110,10480 RAINBOW BRIDGE DRIVE,FALCON,FALCON 49,5779,MERIDIAN RANCH ELEMENTARY SCHOOL,E,740,N,N,0.28,0.14,0.11,0.02,Performance,0.56
38.2464782,-104.4662987,2700,1050  35TH LANE,PUEBLO,PUEBLO COUNTY 70,7208,PUEBLO COUNTY HIGH SCHOOL,H,940,N,N,0.48,0.52,0.12,0.06,Improvement,0.48
38.7321361,-108.0600077,870,1050 HASTINGS,DELTA,DELTA COUNTY 50(J),5154,LINCOLN ELEMENTARY SCHOOL,E,540,N,N,0.34,0.69,0.16,0.12,Performance,0.57
39.6970261,-105.0153784,880,1050 SOUTH ZUNI STREET,DENVER,DENVER COUNTY 1,3512,GOLDRICK ELEMENTARY SCHOOL,E,511,N,N,0.96,0.97,0.09,0.60,Performance,0.55
39.752167,-105.116212,1420,10500 WEST 25TH AVENUE,LAKEWOOD,JEFFERSON COUNTY R-1,9154,VIVIAN ELEMENTARY SCHOOL,E,177,N,N,0.54,0.72,0.24,0.12,Performance,0.66
39.752167,-105.116212,1420,10500 WEST 25TH AVENUE,LAKEWOOD,JEFFERSON COUNTY R-1,9154,VIVIAN ELEMENTARY SCHOOL,M,25,N,N,0.54,0.72,0.24,0.12,Performance,0.66
40.3891625,-104.6938936,3120,1051 29TH STREET RD,EVANS,GREELEY 6,8975,UNION COLONY ELEMENTARY SCHOOL,E,445,N,Y,0.59,0.65,0.06,0.22,Performance,0.57
40.1463751,-105.108129,470,1051 S. PRATT PARKWAY,LONGMONT,ST VRAIN VALLEY RE 1J,1148,BURLINGTON ELEMENTARY SCHOOL,E,451,N,N,0.46,0.52,0.17,0.16,Improvement,0.51
40.154874,-105.110016,470,1055 Delaware Avenue,Longmont,ST VRAIN VALLEY RE 1J,7565,ST. VRAIN COMMUNITY MONTESSORI SCHOOL,E,203,N,Y,0.14,N/A,0.07,0.05,Performance,0.63
40.154874,-105.110016,470,1055 Delaware Avenue,Longmont,ST VRAIN VALLEY RE 1J,7565,ST. VRAIN COMMUNITY MONTESSORI SCHOOL,M,34,N,Y,0.14,N/A,0.07,0.05,N/A,N/A
39.69763,-105.0279492,880,1055 SOUTH HAZEL COURT,DENVER,DENVER COUNTY 1,7192,PASCUAL LEDOUX ACADEMY,E,249,N,N,0.96,N/A,0.18,N/A,N/A,N/A
39.888871,-104.795186,40,10566 MEMPHIS STREET,COMMERCE CITY,SCHOOL DISTRICT 27J,4950,LANDMARK ACADEMY AT REUNION,E,523,N,Y,0.32,0.13,0.09,0.05,Performance,0.54
39.888871,-104.795186,40,10566 MEMPHIS STREET,COMMERCE CITY,SCHOOL DISTRICT 27J,4950,LANDMARK ACADEMY AT REUNION,M,239,N,Y,0.32,0.13,0.09,0.05,Improvement,0.44
39.5226081,-104.9657138,900,10585 MOUNTAIN VISTA RIDGE,HIGHLANDS RANCH,DOUGLAS COUNTY RE 1,6165,MOUNTAIN VISTA HIGH SCHOOL,H,2260,N,N,0.21,0.07,0.08,0.02,Performance,0.89
39.522002,-104.962735,900,10590 MONTE VISTA WAY,HIGHLANDS RANCH,DOUGLAS COUNTY RE 1,6164,MOUNTAIN RIDGE MIDDLE SCHOOL,M,1192,N,N,0.21,0.07,0.10,0.02,Performance,0.66
39.835464,-105.5227529,1330,10595 HIGHWAY 119,BLACK HAWK,GILPIN COUNTY RE-1,1632,GILPIN COUNTY ELEMENTARY SCHOOL,E,229,N,N,0.21,0.29,0.14,N/A,Performance,0.92
39.835424,-105.5227929,1330,10595 HIGHWAY 119,BLACK HAWK,GILPIN COUNTY RE-1,1634,GILPIN COUNTY UNDIVIDED HIGH SCHOOL,H,114,N,N,0.20,0.26,0.11,N/A,Performance,0.68
39.835424,-105.5227929,1330,10595 HIGHWAY 119,BLACK HAWK,GILPIN COUNTY RE-1,1634,GILPIN COUNTY UNDIVIDED HIGH SCHOOL,M,92,N,N,0.20,0.26,0.11,N/A,Performance,0.77
39.888843,-104.981339,20,10604 GRANT DRIVE,NORTHGLENN,ADAMS 12 FIVE STAR SCHOOLS,8211,THE STUDIO SCHOOL,E,297,N,N,0.33,0.41,0.07,0.05,Performance,0.66
38.676287,-104.684503,1000,10605 JIMMY CAMP ROAD,FOUNTAIN,FOUNTAIN 8,2037,CONRAD EARLY LEARNING CENTER,E,173,N,N,0.49,N/A,0.42,N/A,N/A,N/A
39.5233347,-105.000522,900,10625 WEATHERSFIELD WAY,HIGHLANDS RANCH,DOUGLAS COUNTY RE 1,2953,STONE MOUNTAIN ELEMENTARY,E,509,N,N,0.15,N/A,0.11,0.03,Performance,0.99
39.5233347,-105.000522,900,10625 WEATHERSFIELD WAY,HIGHLANDS RANCH,DOUGLAS COUNTY RE 1,2953,STONE MOUNTAIN ELEMENTARY,M,97,N,N,0.15,N/A,0.11,0.03,Performance,0.99
38.2675872,-104.5894832,2690,107 SOUTH LA CROSSE AVENUE,PUEBLO,PUEBLO CITY 60,954,BRADFORD ELEMENTARY SCHOOL,E,388,N,N,0.87,0.96,0.13,0.20,Priority Improvement,0.40
39.891641,-104.927718,20,10724 ELM DRIVE,THORNTON,ADAMS 12 FIVE STAR SCHOOLS,2584,RIVERDALE ELEMENTARY SCHOOL,E,423,N,N,0.55,0.51,0.15,0.22,Performance,0.74
38.987186,-104.762977,1040,10750 THUNDER MOUNTAIN AVENUE,COLORADO SPRINGS,ACADEMY 20,6937,PINE CREEK HIGH SCHOOL,H,1579,N,N,0.26,0.07,0.06,0.01,Performance,0.78
39.6133721,-105.1181361,1420,10785 WEST ALAMO PLACE,LITTLETON,JEFFERSON COUNTY R-1,9490,WESTRIDGE ELEMENTARY SCHOOL,E,431,N,N,0.22,0.19,0.09,0.04,Performance,0.90
39.6133721,-105.1181361,1420,10785 WEST ALAMO PLACE,LITTLETON,JEFFERSON COUNTY R-1,9490,WESTRIDGE ELEMENTARY SCHOOL,M,84,N,N,0.22,0.19,0.09,0.04,Performance,0.90
39.63934,-106.0395261,3000,108 DEERPATH ROAD,DILLON,SUMMIT RE-1,8370,DILLON VALLEY ELEMENTARY SCHOOL,E,434,N,N,0.62,0.49,0.09,0.47,Performance,0.67
37.299078,-107.8725672,8001,108 WEST 31ST STREET,DURANGO,CHARTER SCHOOL INSTITUTE,5453,MOUNTAIN MIDDLE SCHOOL,M,195,N,Y,0.10,N/A,0.05,N/A,Performance,0.68
38.7333431,-108.0505348,870,1080 PIONEER RD,DELTA,DELTA COUNTY 50(J),2166,DELTA VISION SCHOOL,E,193,N,Y,0.14,0.55,0.10,N/A,Improvement,0.45
38.7333431,-108.0505348,870,1080 PIONEER RD,DELTA,DELTA COUNTY 50(J),2166,DELTA VISION SCHOOL,H,145,N,Y,0.14,0.55,0.10,N/A,Performance,0.54
38.7333431,-108.0505348,870,1080 PIONEER RD,DELTA,DELTA COUNTY 50(J),2166,DELTA VISION SCHOOL,M,111,N,Y,0.14,0.55,0.10,N/A,Performance,0.55
39.7784403,-105.1193757,1420,10801 WEST 44TH AVENUE,WHEAT RIDGE,JEFFERSON COUNTY R-1,3250,NORMA ANDERSON PRESCHOOL,E,117,N,N,0.43,N/A,0.21,N/A,N/A,N/A
39.5154429,-104.7404668,900,10881 RIVA RIDGE STREET,PARKER,DOUGLAS COUNTY RE 1,6961,PIONEER ELEMENTARY SCHOOL,E,518,N,N,0.20,0.18,0.20,0.04,Performance,0.77
39.39521,-107.212427,8001,109 Lewies Lane,CARBONDALE,CHARTER SCHOOL INSTITUTE,7512,ROSS MONTESSORI SCHOOL,E,239,N,Y,0.27,0.21,0.07,0.11,Improvement,0.46
39.39521,-107.212427,8001,109 Lewies Lane,CARBONDALE,CHARTER SCHOOL INSTITUTE,7512,ROSS MONTESSORI SCHOOL,M,55,N,Y,0.27,0.21,0.07,0.11,Performance,0.78
39.8939962,-104.9956794,20,10900 HURON STREET,NORTHGLENN,ADAMS 12 FIVE STAR SCHOOLS,210,VANTAGE POINT,H,307,Y,N,0.57,0.57,0.20,0.19,Turnaround,0.30
39.8939962,-104.9956794,20,10900 HURON STREET,NORTHGLENN,ADAMS 12 FIVE STAR SCHOOLS,210,VANTAGE POINT,M,50,Y,N,0.57,0.57,0.20,0.19,Turnaround,0.33
39.5172031,-104.7632584,900,10940 SOUTH PARKER ROAD #781,PARKER,DOUGLAS COUNTY RE 1,3327,GLOBAL VILLAGE ACADEMY - DOUGLAS COUNTY,E,319,N,Y,0.54,0.18,0.03,0.18,Performance,0.90
39.5172031,-104.7632584,900,10940 SOUTH PARKER ROAD #781,PARKER,DOUGLAS COUNTY RE 1,3327,GLOBAL VILLAGE ACADEMY - DOUGLAS COUNTY,M,11,N,Y,0.54,0.18,0.03,0.18,Performance,0.90
39.897014,-105.062996,1420,10951 NORTH HARLAN STREET,WESTMINSTER,JEFFERSON COUNTY R-1,4478,SHERIDAN GREEN ELEMENTARY SCHOOL,E,380,N,N,0.40,0.38,0.10,0.06,Improvement,0.52
39.897014,-105.062996,1420,10951 NORTH HARLAN STREET,WESTMINSTER,JEFFERSON COUNTY R-1,4478,SHERIDAN GREEN ELEMENTARY SCHOOL,M,45,N,N,0.40,0.38,0.10,0.06,Improvement,0.52
38.5536166,-106.9372104,1360,1099 NORTH 11TH,GUNNISON,GUNNISON WATERSHED RE1J,3690,GUNNISON ELEMENTARY SCHOOL,E,560,N,N,0.29,0.42,0.08,0.14,Performance,0.56
38.5536566,-106.9372504,1360,1099 NORTH 11TH,GUNNISON,GUNNISON WATERSHED RE1J,3697,GUNNISON MIDDLE SCHOOL,M,287,N,N,0.26,0.38,0.10,0.14,Improvement,0.51
38.1096895,-103.5091649,2560,110 LAKEVIEW AVENUE,CHERAW,CHERAW 31,1546,CHERAW SCHOOL,E,121,N,N,0.30,0.63,0.11,N/A,Improvement,0.49
38.1096895,-103.5091649,2560,110 LAKEVIEW AVENUE,CHERAW,CHERAW 31,1546,CHERAW SCHOOL,H,48,N,N,0.30,0.63,0.11,N/A,Performance,0.69
38.1096895,-103.5091649,2560,110 LAKEVIEW AVENUE,CHERAW,CHERAW 31,1546,CHERAW SCHOOL,M,47,N,N,0.30,0.63,0.11,N/A,Performance,0.56
38.8558498,-104.9147018,1030,110 PAWNEE AVENUE,MANITOU SPRINGS,MANITOU SPRINGS 14,5460,MANITOU SPRINGS ELEMENTARY SCHOOL,E,469,N,N,0.18,0.32,0.07,0.02,Improvement,0.52
38.829692,-104.77687,1010,110 SOUTH CIRCLE DRIVE,COLORADO SPRINGS,COLORADO SPRINGS 11,9618,ROGERS ELEMENTARY SCHOOL,E,386,N,N,0.68,0.87,0.10,0.16,Priority Improvement,0.40
38.2484049,-104.6560721,2690,110 UNIVERSITY CIRCLE,PUEBLO,PUEBLO CITY 60,8402,SUNSET PARK ELEMENTARY SCHOOL,E,503,N,N,0.68,0.73,0.12,0.02,Performance,0.59
38.805718,-104.8494203,1020,1100 MERCURY DRIVE,COLORADO SPRINGS,CHEYENNE MOUNTAIN 12,1604,SKYWAY PARK ELEMENTARY SCHOOL,E,274,N,N,0.39,0.48,0.18,0.05,Performance,0.72
38.805718,-104.8494203,1020,1100 MERCURY DRIVE,COLORADO SPRINGS,CHEYENNE MOUNTAIN 12,1604,SKYWAY PARK ELEMENTARY SCHOOL,M,42,N,N,0.39,0.48,0.18,0.05,Performance,0.72
38.479973,-107.863475,2180,1100 SOUTH 5TH STREET,MONTROSE,MONTROSE COUNTY RE-1J,1392,CENTENNIAL MIDDLE SCHOOL,M,554,N,N,0.50,0.53,0.12,0.20,Performance,0.71
39.3692519,-104.8447649,900,1100 SOUTH STREET,CASTLE ROCK,DOUGLAS COUNTY RE 1,8126,SOUTH RIDGE ELEMENTARY AN IB WORLD SCHOOL,E,430,N,N,0.36,0.46,0.17,0.17,Performance,0.56
39.3692519,-104.8447649,900,1100 SOUTH STREET,CASTLE ROCK,DOUGLAS COUNTY RE 1,8126,SOUTH RIDGE ELEMENTARY AN IB WORLD SCHOOL,M,77,N,N,0.36,0.46,0.17,0.17,Performance,0.56
40.4817462,-104.9151013,3100,1100 WEST MAIN STREET,WINDSOR,WINDSOR RE-4,9672,WINDSOR HIGH SCHOOL,H,1457,N,N,0.19,0.14,0.08,0.01,Performance,0.70
39.703134,-104.8588303,130,11000 EAST EXPOSITION,AURORA,CHERRY CREEK 5,3988,HIGHLINE COMMUNITY ELEMENTARY SCHOOL,E,533,N,N,0.84,0.87,0.11,0.56,Priority Improvement,0.36
39.7123196,-104.8600981,180,11001-A EAST ALAMEDA AVENUE,AURORA,ADAMS-ARAPAHOE 28J,5298,LOTUS SCHOOL FOR EXCELLENCE,E,391,N,Y,0.83,0.73,0.06,0.48,Turnaround,0.25
39.7123196,-104.8600981,180,11001-A EAST ALAMEDA AVENUE,AURORA,ADAMS-ARAPAHOE 28J,5298,LOTUS SCHOOL FOR EXCELLENCE,H,232,N,Y,0.83,0.73,0.06,0.48,Performance,0.70
39.7123196,-104.8600981,180,11001-A EAST ALAMEDA AVENUE,AURORA,ADAMS-ARAPAHOE 28J,5298,LOTUS SCHOOL FOR EXCELLENCE,M,256,N,Y,0.83,0.73,0.06,0.48,Performance,0.64
40.4042176,-105.0988453,1560,1101 HILLTOP DR,LOVELAND,THOMPSON R2-J,5121,LEAP SCHOOL,E,104,N,N,0.13,0.12,N/A,N/A,N/A,N/A
40.4042176,-105.0988453,1560,1101 HILLTOP DR,LOVELAND,THOMPSON R2-J,5121,LEAP SCHOOL,H,26,N,N,0.13,0.12,N/A,N/A,N/A,N/A
40.4042176,-105.0988453,1560,1101 HILLTOP DR,LOVELAND,THOMPSON R2-J,5121,LEAP SCHOOL,M,63,N,N,0.13,0.12,N/A,N/A,N/A,N/A
40.4042176,-105.0988453,1560,1101 HILLTOP DRIVE,LOVELAND,THOMPSON R2-J,9260,HAROLD FERGUSON HIGH SCHOOL,H,127,Y,N,0.31,0.72,0.09,N/A,Improvement,0.25
39.1480896,-108.7153067,2000,1102 WILDCAT AVE,FRUITA,MESA COUNTY VALLEY 51,6070,FRUITA MONUMENT HIGH SCHOOL,H,1257,N,N,0.17,0.28,0.10,0.01,Performance,0.71
39.7067958,-105.1214825,1420,11025 WEST GLENNON DRIVE,LAKEWOOD,JEFFERSON COUNTY R-1,3450,GLENNON HEIGHTS ELEMENTARY SCHOOL,E,210,N,N,0.40,0.61,0.19,0.07,Performance,0.73
39.7067958,-105.1214825,1420,11025 WEST GLENNON DRIVE,LAKEWOOD,JEFFERSON COUNTY R-1,3450,GLENNON HEIGHTS ELEMENTARY SCHOOL,M,29,N,N,0.40,0.61,0.19,0.07,Performance,0.73
39.382694,-104.848456,900,1103 CANYON DRIVE,CASTLE ROCK,DOUGLAS COUNTY RE 1,1362,CASTLE ROCK ELEMENTARY SCHOOL,E,387,N,N,0.31,0.34,0.17,0.08,Improvement,0.48
39.382694,-104.848456,900,1103 CANYON DRIVE,CASTLE ROCK,DOUGLAS COUNTY RE 1,1362,CASTLE ROCK ELEMENTARY SCHOOL,M,49,N,N,0.31,0.34,0.17,0.08,Improvement,0.48
39.2320475,-104.904247,900,1103 WEST PERRY PARK AVENUE,LARKSPUR,DOUGLAS COUNTY RE 1,4980,LARKSPUR ELEMENTARY SCHOOL,E,185,N,N,0.11,0.14,0.09,0.04,Performance,0.86
39.2320475,-104.904247,900,1103 WEST PERRY PARK AVENUE,LARKSPUR,DOUGLAS COUNTY RE 1,4980,LARKSPUR ELEMENTARY SCHOOL,M,44,N,N,0.11,0.14,0.09,0.04,Performance,0.86
39.5152437,-104.9209554,900,11033 MONARCH BOULEVARD,LITTLETON,DOUGLAS COUNTY RE 1,7448,ROCKY HEIGHTS MIDDLE SCHOOL,M,1480,N,N,0.19,0.04,0.10,0.03,Performance,0.60
39.641626,-106.568753,910,1105 MILLER RANCH ROAD,EDWARDS,EAGLE COUNTY RE 50,2340,EAGLE COUNTY CHARTER ACADEMY,E,229,N,Y,0.06,N/A,0.05,0.04,Performance,0.78
39.641626,-106.568753,910,1105 MILLER RANCH ROAD,EDWARDS,EAGLE COUNTY RE 50,2340,EAGLE COUNTY CHARTER ACADEMY,M,117,N,Y,0.06,N/A,0.05,0.04,Performance,0.85
38.0794205,-102.6146109,2660,1105 PARKVIEW,LAMAR,LAMAR RE-2,6794,PARKVIEW ELEMENTARY SCHOOL,E,294,N,N,0.65,0.77,0.13,0.12,Improvement,0.47
39.5850358,-105.1212144,1420,11050 WEST MEADOWS DRIVE,LITTLETON,JEFFERSON COUNTY R-1,9008,UTE MEADOWS ELEMENTARY SCHOOL,E,366,N,N,0.23,0.11,0.08,0.05,Performance,0.97
39.5850358,-105.1212144,1420,11050 WEST MEADOWS DRIVE,LITTLETON,JEFFERSON COUNTY R-1,9008,UTE MEADOWS ELEMENTARY SCHOOL,M,34,N,N,0.23,0.11,0.08,0.05,Performance,0.97
39.897725,-104.9797959,20,11080 GRANT DRIVE,NORTHGLENN,ADAMS 12 FIVE STAR SCHOOLS,8361,STUKEY ELEMENTARY SCHOOL,E,400,N,N,0.65,0.84,0.11,0.25,Performance,0.59
40.3958534,-104.6763123,3120,111 E 26th Street,GREELEY,GREELEY 6,8467,SALIDA DEL SOL ACADEMY,E,538,N,Y,0.97,0.88,0.08,0.57,Turnaround,0.33
40.3958534,-104.6763123,3120,111 E 26th Street,GREELEY,GREELEY 6,8467,SALIDA DEL SOL ACADEMY,M,206,N,Y,0.97,0.88,0.08,0.57,Performance,0.55
40.1700153,-105.0953228,470,111 LONGS PEAK AVENUE,LONGMONT,ST VRAIN VALLEY RE 1J,1844,COLUMBINE ELEMENTARY SCHOOL,E,318,N,N,0.89,0.91,0.17,0.60,Performance,0.57
40.1147111,-105.3880947,480,111 MESA STREET,JAMESTOWN,BOULDER VALLEY RE 2,4386,JAMESTOWN ELEMENTARY SCHOOL,E,19,N,N,0.00,N/A,N/A,N/A,Performance,N/A
38.9543055,-104.7911874,1040,1110 CHAPEL HILLS DRIVE,COLORADO SPRINGS,ACADEMY 20,1033,BRIARGATE PRESCHOOL,E,124,N,N,0.39,N/A,0.36,N/A,N/A,N/A
39.8978147,-105.045267,20,11100 VRAIN STREET,WESTMINSTER,ADAMS 12 FIVE STAR SCHOOLS,1914,COTTON CREEK ELEMENTARY SCHOOL,E,604,N,N,0.33,0.25,0.10,0.13,Performance,0.71
38.1534889,-107.7647611,2590,1115 WEST CLINTON STREET,RIDGWAY,RIDGWAY R-2,7342,RIDGWAY ELEMENTARY SCHOOL,E,153,N,N,0.14,0.37,0.09,N/A,Improvement,0.52
40.6152574,-105.0563852,1550,1118 MIRAMOUNT DRIVE,FORT COLLINS,POUDRE R-1,8460,TAVELLI ELEMENTARY SCHOOL,E,610,N,N,0.25,0.39,0.08,0.05,Performance,0.77
38.2776789,-104.6098435,8001,1120 Court Street,PUEBLO,CHARTER SCHOOL INSTITUTE,9785,YOUTH & FAMILY ACADEMY CHARTER,H,118,Y,Y,0.83,0.58,0.09,N/A,Turnaround,0.25
39.7760087,-104.8533421,880,11200 E 45TH AVE,DENVER,DENVER COUNTY 1,2757,HIGH TECH EARLY COLLEGE,H,470,N,N,0.96,0.82,0.10,0.47,Improvement,0.49
39.7760287,-104.8533621,880,11200 EAST 45TH AVE,DENVER,DENVER COUNTY 1,9735,STRIVE PREP - MONTBELLO,M,336,N,Y,0.98,0.88,0.11,0.51,Improvement,0.48
39.7760487,-104.8533121,880,11200 EAST 45TH AVENUE,DENVER,DENVER COUNTY 1,4509,KIPP NORTHEAST DENVER LEADERSHIP ACADEMY,H,282,N,Y,0.94,0.86,0.11,0.45,Performance,0.84
39.608898,-104.858694,130,11200 EAST ORCHARD AVENUE,ENGLEWOOD,CHERRY CREEK 5,1916,COTTONWOOD CREEK ELEMENTARY SCHOOL,E,616,N,N,0.30,0.04,0.06,0.07,Performance,0.86
39.6413662,-106.5721153,910,1121 MILLER RANCH ROAD,EDWARDS,EAGLE COUNTY RE 50,4838,JUNE CREEK ELEMENTARY SCHOOL,E,317,N,N,0.88,0.77,0.15,0.70,Performance,0.55
39.8965521,-104.972532,20,1123 MURIEL DRIVE,NORTHGLENN,ADAMS 12 FIVE STAR SCHOOLS,6398,NORTHGLENN MIDDLE SCHOOL,M,798,N,N,0.73,0.84,0.17,0.35,Performance,0.63
37.3356453,-108.8445081,2035,11247 COUNTY ROAD G,CORTEZ,MONTEZUMA-CORTEZ RE-1,609,BATTLE ROCK CHARTER SCHOOL,E,47,N,Y,0.44,0.83,N/A,N/A,Turnaround,0.25
37.3356453,-108.8445081,2035,11247 COUNTY ROAD G,CORTEZ,MONTEZUMA-CORTEZ RE-1,609,BATTLE ROCK CHARTER SCHOOL,M,10,N,Y,0.44,0.83,N/A,N/A,Turnaround,0.25
40.5689039,-105.0979346,1550,1125 BENNETT ROAD,FORT COLLINS,POUDRE R-1,766,BENNETT ELEMENTARY SCHOOL,E,496,N,N,0.24,0.33,0.07,0.06,Performance,0.81
38.2466697,-104.6167008,2690,1125 E ROUTT AVENUE,PUEBLO,PUEBLO CITY 60,822,BESSEMER ELEMENTARY SCHOOL,E,303,N,N,0.85,0.93,0.13,0.11,Priority Improvement,0.35
39.9007673,-105.0753954,1420,11251 REED WAY,BROOMFIELD,JEFFERSON COUNTY R-1,4404,JEFFERSON ACADEMY,E,291,N,Y,0.23,0.06,N/A,0.03,N/A,N/A
39.9007673,-105.0753954,1420,11251 REED WAY,BROOMFIELD,JEFFERSON COUNTY R-1,4404,JEFFERSON ACADEMY,H,232,N,Y,0.23,0.06,N/A,0.03,Performance,0.70
39.9007673,-105.0753954,1420,11251 REED WAY,BROOMFIELD,JEFFERSON COUNTY R-1,4404,JEFFERSON ACADEMY,M,389,N,Y,0.23,0.06,N/A,0.03,Performance,0.65
39.9007473,-105.0753554,1420,11251 REED WAY,BROOMFIELD,JEFFERSON COUNTY R-1,4410,JEFFERSON ACADEMY HIGH SCHOOL,H,430,N,Y,0.25,0.12,N/A,0.03,Performance,0.90
37.1454203,-108.1207278,1520,11274 HIGHWAY 140,HESPERUS,DURANGO 9-R,3050,FORT LEWIS MESA ELEMENTARY SCHOOL,E,150,N,N,0.20,0.58,0.13,N/A,Performance,0.82
38.2427439,-104.4582847,2700,1132 LANE 36,PUEBLO,PUEBLO COUNTY 70,9134,VINELAND MIDDLE SCHOOL,M,300,N,N,0.54,0.67,0.17,0.12,Performance,0.63
39.810379,-105.126007,1420,11325 ALLENDALE DRIVE,ARVADA,JEFFERSON COUNTY R-1,9245,WARREN TECH NORTH,H,11,Y,N,0.18,N/A,N/A,N/A,Performance,N/A
39.7476875,-104.8554929,180,11351 E. MONTVIEW BLVD,AURORA,ADAMS-ARAPAHOE 28J,6546,OPTIONS SCHOOL,E,653,N,N,0.21,0.08,N/A,N/A,N/A,N/A
39.7476875,-104.8554929,180,11351 E. MONTVIEW BLVD,AURORA,ADAMS-ARAPAHOE 28J,6546,OPTIONS SCHOOL,H,150,N,N,0.21,0.08,N/A,N/A,N/A,N/A
39.7476875,-104.8554929,180,11351 E. MONTVIEW BLVD,AURORA,ADAMS-ARAPAHOE 28J,6546,OPTIONS SCHOOL,M,232,N,N,0.21,0.08,N/A,N/A,N/A,N/A
40.5274061,-104.7199496,3085,114 PARK AVENUE,EATON,EATON RE-2,2456,EATON HIGH SCHOOL,H,546,N,N,0.29,0.25,0.05,0.03,Performance,0.65
39.9047899,-104.8505617,40,11453 OSWEGO STREET,HENDERSON,SCHOOL DISTRICT 27J,8032,JOHN W THIMMIG ELEMENTARY SCHOOL,E,663,N,N,0.57,0.39,0.12,0.13,Performance,0.55
39.1216316,-104.9185761,1080,115 UPPER GLENWAY,PALMER LAKE,LEWIS-PALMER 38,6682,PALMER LAKE ELEMENTARY SCHOOL,E,305,N,N,0.21,0.27,0.09,0.09,Performance,0.73
39.1216316,-104.9185761,1080,115 UPPER GLENWAY,PALMER LAKE,LEWIS-PALMER 38,6682,PALMER LAKE ELEMENTARY SCHOOL,M,44,N,N,0.21,0.27,0.09,0.09,Performance,0.73
40.0083736,-105.2851448,480,1150 7TH STREET,BOULDER,BOULDER VALLEY RE 2,2970,FLATIRONS ELEMENTARY SCHOOL,E,254,N,N,0.15,0.11,0.11,0.02,Performance,0.70
39.7344088,-104.9434966,880,1150 GARFIELD STREET,DENVER,DENVER COUNTY 1,8776,TELLER ELEMENTARY SCHOOL,E,474,N,N,0.34,0.31,0.08,0.06,Improvement,0.76
39.7345533,-105.0011376,880,1150 LIPAN STREET,DENVER,DENVER COUNTY 1,3655,GREENLEE ELEMENTARY SCHOOL,E,335,N,N,0.90,0.93,0.13,0.28,Improvement,0.50
39.5095526,-107.3160633,1180,1150 MOUNT SOPRIS DRIVE,GLENWOOD SPRINGS,ROARING FORK RE-1,8038,SOPRIS ELEMENTARY SCHOOL,E,657,N,N,0.58,0.48,0.11,0.41,Improvement,0.49
39.0936091,-104.8467226,1080,1150 VILLAGE RIDGE POINT,MONUMENT,LEWIS-PALMER 38,5093,MONUMENT CHARTER ACADEMY,E,681,N,Y,0.19,0.06,0.07,0.03,Performance,0.64
39.0936091,-104.8467226,1080,1150 VILLAGE RIDGE POINT,MONUMENT,LEWIS-PALMER 38,5093,MONUMENT CHARTER ACADEMY,M,340,N,Y,0.19,0.06,0.07,0.03,Performance,0.74
39.9893755,-105.1038977,480,1150 W  SOUTH BOULDER ROAD,LAFAYETTE,BOULDER VALLEY RE 2,4878,ANGEVINE MIDDLE SCHOOL,M,711,N,N,0.49,0.44,0.16,0.24,Performance,0.56
39.9019017,-104.9289086,20,11500 CHERRY DRIVE,THORNTON,ADAMS 12 FIVE STAR SCHOOLS,2576,CHERRY DRIVE ELEMENTARY SCHOOL,E,343,N,N,0.38,0.50,0.10,0.07,Performance,0.73
39.8508407,-105.1283275,1420,11500 W. 84TH AVE,ARVADA,JEFFERSON COUNTY R-1,2799,EXCEL ACADEMY CHARTER SCHOOL,E,351,N,Y,0.21,0.19,0.06,0.04,Performance,0.53
39.8508407,-105.1283275,1420,11500 W. 84TH AVE,ARVADA,JEFFERSON COUNTY R-1,2799,EXCEL ACADEMY CHARTER SCHOOL,M,168,N,Y,0.21,0.19,0.06,0.04,Performance,0.65
39.7336105,-104.9098966,880,1151 NEWPORT STREET,DENVER,DENVER COUNTY 1,6002,MONTCLAIR ELEMENTARY SCHOOL,E,433,N,N,0.76,0.76,0.08,0.45,Performance,0.64
39.7349436,-104.8369861,180,1155 VAUGHN ST,AURORA,ADAMS-ARAPAHOE 28J,9060,VAUGHN ELEMENTARY SCHOOL,E,454,N,N,0.90,0.83,0.09,0.60,Improvement,0.48
39.9058415,-104.9658886,20,11551 WYCO DRIVE,NORTHGLENN,ADAMS 12 FIVE STAR SCHOOLS,4172,HULSTROM OPTIONS K-8 SCHOOL,E,464,N,N,0.37,0.10,0.01,0.07,Performance,0.93
39.9058415,-104.9658886,20,11551 WYCO DRIVE,NORTHGLENN,ADAMS 12 FIVE STAR SCHOOLS,4172,HULSTROM OPTIONS K-8 SCHOOL,M,218,N,N,0.37,0.10,0.01,0.07,Performance,1.00
39.8095685,-105.1285606,1420,11595 ALLENDALE DRIVE,ARVADA,JEFFERSON COUNTY R-1,378,ARVADA WEST HIGH SCHOOL,H,1740,N,N,0.26,0.27,0.10,0.03,Performance,0.69
38.816585,-104.740126,980,1160 KEITH DRIVE,COLORADO SPRINGS,HARRISON 2,9602,WILDFLOWER ELEMENTARY SCHOOL,E,484,N,N,0.72,0.85,0.08,0.12,Performance,0.67
37.8123283,-107.6664375,2820,1160 SNOWDEN STREET,SILVERTON,SILVERTON 1,7900,SILVERTON ELEMENTARY SCHOOL,E,38,N,N,0.37,0.71,N/A,N/A,Insufficient State Data,0.50
37.8123483,-107.6664175,2820,1160 SNOWDEN STREET,SILVERTON,SILVERTON 1,7902,SILVERTON MIDDLE SCHOOL,M,25,N,N,0.36,N/A,N/A,N/A,Performance,0.58
37.8123683,-107.6664575,2820,1160 SNOWDEN STREET,SILVERTON,SILVERTON 1,7904,SILVERTON HIGH SCHOOL,H,17,N,N,0.24,N/A,N/A,N/A,Performance,N/A
39.5101942,-104.7987591,900,11605 SOUTH BRADBURY RANCH DRIVE,PARKER,DOUGLAS COUNTY RE 1,7134,PRAIRIE CROSSING ELEMENTARY SCHOOL,E,542,N,N,0.26,0.06,0.13,0.06,Performance,0.89
39.5101942,-104.7987591,900,11605 SOUTH BRADBURY RANCH DRIVE,PARKER,DOUGLAS COUNTY RE 1,7134,PRAIRIE CROSSING ELEMENTARY SCHOOL,M,59,N,N,0.26,0.06,0.13,0.06,Performance,0.89
39.531887,-104.756945,900,1161 NORTH PINE DRIVE,PARKER,DOUGLAS COUNTY RE 1,1873,PARKER CORE KNOWLEDGE CHARTER SCHOOL,E,469,N,Y,0.24,N/A,0.05,0.04,Performance,0.93
39.531887,-104.756945,900,1161 NORTH PINE DRIVE,PARKER,DOUGLAS COUNTY RE 1,1873,PARKER CORE KNOWLEDGE CHARTER SCHOOL,M,226,N,Y,0.24,N/A,0.05,0.04,Performance,0.93
39.7321442,-104.8518819,180,11700 EAST 11TH AVE,AURORA,ADAMS-ARAPAHOE 28J,1458,AURORA CENTRAL HIGH SCHOOL,H,2209,N,N,0.96,0.69,0.13,0.52,Priority Improvement,0.35
39.9084899,-104.9673863,20,11700 IRMA DRIVE,NORTHGLENN,ADAMS 12 FIVE STAR SCHOOLS,8275,STEM LAB,E,311,N,N,0.26,0.19,0.08,0.07,Performance,0.69
39.9084899,-104.9673863,20,11700 IRMA DRIVE,NORTHGLENN,ADAMS 12 FIVE STAR SCHOOLS,8275,STEM LAB,M,160,N,N,0.26,0.19,0.08,0.07,Performance,0.87
39.9084899,-104.9673863,20,11700 IRMA DRIVE,NORTHGLENN,ADAMS 12 FIVE STAR SCHOOLS,9431,WESTGATE CHARTER,E,278,N,Y,0.25,0.15,0.05,0.05,Performance,0.67
39.9084899,-104.9673863,20,11700 IRMA DRIVE,NORTHGLENN,ADAMS 12 FIVE STAR SCHOOLS,9431,WESTGATE CHARTER,H,87,N,Y,0.25,0.15,0.05,0.05,Performance,0.89
39.9084899,-104.9673863,20,11700 IRMA DRIVE,NORTHGLENN,ADAMS 12 FIVE STAR SCHOOLS,9431,WESTGATE CHARTER,M,127,N,Y,0.25,0.15,0.05,0.05,Performance,0.82
39.9079287,-104.9464977,20,11717 MADISON STREET,THORNTON,ADAMS 12 FIVE STAR SCHOOLS,9682,WOODGLEN ELEMENTARY SCHOOL,E,522,N,N,0.51,0.59,0.17,0.15,Performance,0.64
39.9026424,-105.3558275,1420,11719 RANCH ELSIE ROAD,GOLDEN,JEFFERSON COUNTY R-1,1730,COAL CREEK CANYON K-8 ELEMENTARY SCHOOL,E,103,N,N,0.09,0.16,0.07,0.03,Performance,0.85
39.9026424,-105.3558275,1420,11719 RANCH ELSIE ROAD,GOLDEN,JEFFERSON COUNTY R-1,1730,COAL CREEK CANYON K-8 ELEMENTARY SCHOOL,M,37,N,N,0.09,0.16,0.07,0.03,Performance,0.88
40.2871418,-104.7787851,3080,1175 BIRCH STREET,GILCREST,WELD COUNTY RE-1,3398,GILCREST ELEMENTARY SCHOOL,E,180,N,N,0.67,0.71,0.09,0.32,Performance,0.76
39.7349312,-105.0056079,880,1175 OSAGE STREET #100,DENVER,DENVER COUNTY 1,1748,COLORADO HIGH SCHOOL CHARTER,H,350,Y,Y,0.86,0.65,0.14,0.21,Performance,0.25
40.637891,-103.21905,1828,1177 PAWNEE STREET,STERLING,VALLEY RE-1,8256,STERLING MIDDLE SCHOOL,M,433,N,N,0.31,0.55,0.15,0.06,Performance,0.76
39.673184,-104.851294,130,11777 EAST WESLEY AVENUE,AURORA,CHERRY CREEK 5,2428,EASTRIDGE COMMUNITY ELEMENTARY SCHOOL,E,886,N,N,0.73,0.75,0.14,0.36,Performance,0.49
38.9743223,-104.7346158,1040,11795 GRAND LAWN CIRCLE,COLORADO SPRINGS,ACADEMY 20,1615,CHINOOK TRAIL ELEMENTARY SCHOOL,E,964,N,N,0.29,0.05,0.05,0.04,Performance,0.83
39.9115904,-105.033406,8001,11800 LOWELL BLVD,WESTMINSTER,CHARTER SCHOOL INSTITUTE,15,ACADEMY OF CHARTER SCHOOLS,E,842,N,Y,0.39,0.22,N/A,N/A,Performance,0.56
39.9115904,-105.033406,8001,11800 LOWELL BLVD,WESTMINSTER,CHARTER SCHOOL INSTITUTE,15,ACADEMY OF CHARTER SCHOOLS,H,545,N,Y,0.39,0.22,N/A,N/A,Performance,0.76
39.9115904,-105.033406,8001,11800 LOWELL BLVD,WESTMINSTER,CHARTER SCHOOL INSTITUTE,15,ACADEMY OF CHARTER SCHOOLS,M,443,N,Y,0.39,0.22,N/A,N/A,Improvement,0.49
39.6036635,-105.1313322,1420,11809 WEST COAL MINE ROAD,LITTLETON,JEFFERSON COUNTY R-1,8381,SUMMIT RIDGE MIDDLE SCHOOL,M,725,N,N,0.27,0.22,0.09,0.03,Performance,0.75
38.9994247,-104.6049109,1110,11925 ANTLERS RIDGE ROAD,FALCON,FALCON 49,6935,PIKES PEAK SCHOOL EXPEDITIONARY LEARNING,E,278,N,Y,0.22,0.12,0.08,N/A,Performance,0.56
38.9994247,-104.6049109,1110,11925 ANTLERS RIDGE ROAD,FALCON,FALCON 49,6935,PIKES PEAK SCHOOL EXPEDITIONARY LEARNING,M,134,N,Y,0.22,0.12,0.08,N/A,Performance,0.69
40.1917062,-105.1774534,470,11968 N. 75TH STREET,LONGMONT,ST VRAIN VALLEY RE 1J,4202,HYGIENE ELEMENTARY SCHOOL,E,338,N,N,0.20,0.20,0.14,0.05,Performance,0.70
39.2767123,-106.8723983,2640,1199 WOODY CREEK ROAD,WOODY CREEK,ASPEN 1,42,ASPEN COMMUNITY CHARTER SCHOOL,E,92,N,Y,0.07,N/A,0.08,0.04,Performance,0.68
39.2767123,-106.8723983,2640,1199 WOODY CREEK ROAD,WOODY CREEK,ASPEN 1,42,ASPEN COMMUNITY CHARTER SCHOOL,M,43,N,Y,0.07,N/A,0.08,0.04,Performance,0.85
38.9336502,-104.6055657,1110,11990 SWINGLINE ROAD,FALCON,FALCON 49,6810,PATRIOT HIGH SCHOOL,H,121,Y,N,0.36,0.33,0.17,N/A,Priority Improvement,0.33
39.5627958,-107.3590356,1180,120 SOCCERFIELD ROAD,GLENWOOD SPRINGS,ROARING FORK RE-1,3464,GLENWOOD SPRINGS MIDDLE SCHOOL,M,543,N,N,0.53,0.40,0.09,0.32,Performance,0.55
40.1932469,-105.1093939,470,1200  19TH AVENUE,LONGMONT,ST VRAIN VALLEY RE 1J,6404,NORTHRIDGE ELEMENTARY SCHOOL,E,390,N,N,0.88,0.86,0.17,0.64,Performance,0.55
39.500517,-106.0488716,3000,1200 AIRPORT ROAD,BRECKENRIDGE,SUMMIT RE-1,8993,UPPER BLUE ELEMENTARY SCHOOL,E,291,N,N,0.41,0.32,0.13,0.28,Performance,0.79
38.8046772,-104.8581403,1020,1200 CRESTA ROAD,COLORADO SPRINGS,CHEYENNE MOUNTAIN 12,1590,CHEYENNE MOUNTAIN HIGH SCHOOL,H,1267,N,N,0.24,0.10,0.07,0.01,Performance,0.82
39.8375206,-104.974585,10,1200 E 78TH AVE,DENVER,MAPLETON 1,504,WELBY COMMUNITY SCHOOL,E,228,N,N,0.82,0.72,0.16,0.41,Performance,0.61
39.8375206,-104.974585,10,1200 E 78TH AVE,DENVER,MAPLETON 1,504,WELBY COMMUNITY SCHOOL,M,25,N,N,0.82,0.72,0.16,0.41,Performance,0.61
38.16378,-107.756844,2590,1200 GREEN STREET,RIDGWAY,RIDGWAY R-2,7344,RIDGWAY MIDDLE SCHOOL,M,83,N,N,0.22,0.28,N/A,N/A,Performance,0.74
38.16374,-107.756884,2590,1200 GREEN STREET,RIDGWAY,RIDGWAY R-2,7346,RIDGWAY HIGH SCHOOL,H,98,N,N,0.11,0.25,N/A,N/A,Performance,0.86
39.7363452,-105.1991372,1420,1200 JOHNSON ROAD,GOLDEN,JEFFERSON COUNTY R-1,4798,CONNECTIONS LEARNING CENTER ON THE EARLE JOHNSON CAMPUS,H,17,Y,N,0.65,0.84,N/A,N/A,Performance,0.75
39.7363452,-105.1991372,1420,1200 JOHNSON ROAD,GOLDEN,JEFFERSON COUNTY R-1,4798,CONNECTIONS LEARNING CENTER ON THE EARLE JOHNSON CAMPUS,M,20,Y,N,0.65,0.84,N/A,N/A,Turnaround,0.25
40.1459706,-105.1202582,470,1200 SOUTH SUNSET,LONGMONT,ST VRAIN VALLEY RE 1J,6498,OLDE COLUMBINE HIGH SCHOOL,H,108,Y,N,0.63,0.57,0.16,0.24,Priority Improvement,0.25
38.800248,-104.848531,1020,1200 WEST CHEYENNE ROAD,COLORADO SPRINGS,CHEYENNE MOUNTAIN 12,1588,CHEYENNE MOUNTAIN JUNIOR HIGH SCHOOL,M,656,N,N,0.23,0.14,0.08,0.03,Performance,0.76
39.5729663,-105.0026291,140,1200 WEST MINERAL AVENUE,LITTLETON,LITTLETON 6,5229,LITTLETON ACADEMY,E,313,N,Y,0.26,0.05,0.04,0.01,Performance,0.77
39.5729663,-105.0026291,140,1200 WEST MINERAL AVENUE,LITTLETON,LITTLETON 6,5229,LITTLETON ACADEMY,M,152,N,Y,0.26,0.05,0.04,0.01,Performance,0.93
39.7820712,-104.8503907,880,12000 E. 47TH AVE,DENVER,DENVER COUNTY 1,99,ACADEMY 360,E,211,N,Y,0.89,0.85,0.07,0.29,Priority Improvement,0.39
40.4198079,-104.7121691,3120,1201 21ST AVENUE,GREELEY,GREELEY 6,5620,MAPLEWOOD ELEMENTARY SCHOOL,E,595,N,N,0.90,0.93,0.09,0.56,Priority Improvement,0.41
38.7986574,-104.8483821,1020,1201 WEST CHEYENNE ROAD,COLORADO SPRINGS,CHEYENNE MOUNTAIN 12,1596,CANON ELEMENTARY SCHOOL,E,147,N,N,0.25,N/A,0.33,N/A,N/A,N/A
38.2458452,-104.6311574,2690,1202 BRAGDON AVENUE,PUEBLO,PUEBLO CITY 60,1828,COLUMBIAN ELEMENTARY SCHOOL,E,390,N,N,0.78,0.99,0.17,0.05,Improvement,0.43
40.2071366,-104.8238922,3080,1202 MAIN STREET,PLATTEVILLE,WELD COUNTY RE-1,7056,PLATTEVILLE ELEMENTARY SCHOOL,E,407,N,N,0.56,0.60,0.10,0.21,Improvement,0.47
39.4976429,-104.801998,900,12021 SOUTH SWIFT FOX WAY,PARKER,DOUGLAS COUNTY RE 1,266,GOLD RUSH ELEMENTARY,E,647,N,N,0.19,0.06,0.14,0.03,Performance,0.78
38.8495407,-104.7515278,1010,1205 POTTER DRIVE,COLORADO SPRINGS,COLORADO SPRINGS 11,5948,MITCHELL HIGH SCHOOL,H,1345,N,N,0.64,0.75,0.13,0.14,Priority Improvement,0.42
38.9269699,-104.6032943,1110,12050 FALCON HIGHWAY,FALCON,FALCON 49,2902,FALCON ELEMENTARY SCHOOL OF TECHNOLOGY,E,321,N,N,0.29,0.41,0.20,0.08,Improvement,0.49
39.9150739,-104.9164754,20,12060 JASMINE STREET,BRIGHTON,ADAMS 12 FIVE STAR SCHOOLS,14,GLACIER PEAK ELEMENTARY SCHOOL,E,489,N,N,0.48,0.37,0.10,0.07,Performance,0.67
39.7483556,-104.8487132,180,12095 MONTVIEW BLVD,AURORA,ADAMS-ARAPAHOE 28J,6310,NORTH MIDDLE SCHOOL HEALTH SCIENCES AND TECHNOLOGY CAMPUS,M,808,N,N,0.94,0.83,0.14,0.47,Priority Improvement,0.41
39.6034044,-105.1346971,1420,12109 WEST COAL MINE AVENUE,LITTLETON,JEFFERSON COUNTY R-1,7128,POWDERHORN ELEMENTARY SCHOOL,E,552,N,N,0.25,0.19,0.05,0.06,Performance,0.71
39.6034044,-105.1346971,1420,12109 WEST COAL MINE AVENUE,LITTLETON,JEFFERSON COUNTY R-1,7128,POWDERHORN ELEMENTARY SCHOOL,M,102,N,N,0.25,0.19,0.05,0.06,Performance,0.71
38.445794,-105.2311016,1140,1215 MAIN STEEET,CANON CITY,CANON CITY RE-1,1262,CANON CITY MIDDLE SCHOOL,M,385,N,N,0.24,0.58,0.11,N/A,Performance,0.70
39.745113,-103.0287435,3040,12155 COUNTY ROAD NN,ANTON,ARICKAREE R-2,304,ARICKAREE ELEMENTARY SCHOOL,E,39,N,N,0.49,N/A,N/A,N/A,Performance,0.54
39.745111,-103.0287735,3040,12155 COUNTY ROAD NN,ANTON,ARICKAREE R-2,308,ARICKAREE UNDIVIDED HIGH SCHOOL,H,38,N,N,0.21,0.45,N/A,N/A,Performance,0.74
39.745111,-103.0287735,3040,12155 COUNTY ROAD NN,ANTON,ARICKAREE R-2,308,ARICKAREE UNDIVIDED HIGH SCHOOL,M,20,N,N,0.21,0.45,N/A,N/A,Improvement,0.46
40.0081767,-105.233915,480,1220 EISENHOWER DRIVE,BOULDER,BOULDER VALLEY RE 2,2552,EISENHOWER ELEMENTARY SCHOOL,E,419,N,N,0.27,0.17,0.10,0.16,Performance,0.88
39.7683798,-105.1360769,1420,12225 WEST 38TH AVENUE,WHEAT RIDGE,JEFFERSON COUNTY R-1,4802,KULLERSTRAND ELEMENTARY SCHOOL,E,207,N,N,0.48,0.81,0.22,0.12,Performance,0.68
39.7683798,-105.1360769,1420,12225 WEST 38TH AVENUE,WHEAT RIDGE,JEFFERSON COUNTY R-1,4802,KULLERSTRAND ELEMENTARY SCHOOL,M,29,N,N,0.48,0.81,0.22,0.12,Performance,0.68
38.1321911,-108.2954793,2840,1225 WEST SUMMIT STREET,NORWOOD,NORWOOD R-2J,6422,NORWOOD PUBLIC SCHOOLS,E,111,N,N,0.12,0.50,0.12,0.04,Improvement,0.45
38.1321911,-108.2954793,2840,1225 WEST SUMMIT STREET,NORWOOD,NORWOOD R-2J,6422,NORWOOD PUBLIC SCHOOLS,H,82,N,N,0.12,0.50,0.12,0.04,Performance,0.70
38.1321911,-108.2954793,2840,1225 WEST SUMMIT STREET,NORWOOD,NORWOOD R-2J,6422,NORWOOD PUBLIC SCHOOLS,M,50,N,N,0.12,0.50,0.12,0.04,Performance,0.60
39.699181,-105.131135,1420,12250 WEST KENTUCKY DRIVE,LAKEWOOD,JEFFERSON COUNTY R-1,3624,GREEN MOUNTAIN ELEMENTARY SCHOOL,E,409,N,N,0.45,0.60,0.19,0.07,Performance,0.60
39.699181,-105.131135,1420,12250 WEST KENTUCKY DRIVE,LAKEWOOD,JEFFERSON COUNTY R-1,3624,GREEN MOUNTAIN ELEMENTARY SCHOOL,M,38,N,N,0.45,0.60,0.19,0.07,Performance,0.60
39.0837127,-108.5721161,2000,123 W ORCHARD AVE,GRAND JUNCTION,MESA COUNTY VALLEY 51,9406,WEST MIDDLE SCHOOL,M,382,N,N,0.30,0.38,0.15,0.02,Improvement,0.47
39.6938056,-104.9838477,880,1230 SOUTH GRANT STREET,DENVER,DENVER COUNTY 1,5702,MC KINLEY-THATCHER ELEMENTARY SCHOOL,E,182,N,N,0.54,0.50,0.13,0.14,Performance,0.83
39.9226539,-104.8444144,40,12301 EAST 124TH AVENUE,HENDERSON,SCHOOL DISTRICT 27J,3900,HENDERSON ELEMENTARY SCHOOL,E,449,N,N,0.55,0.47,0.20,0.15,Performance,0.66
39.720943,-104.843418,180,12310 EAST PARKVIEW DR,AURORA,ADAMS-ARAPAHOE 28J,8078,SOUTH MIDDLE SCHOOL,M,735,N,N,0.94,0.83,0.17,0.46,Improvement,0.46
38.4315906,-105.2141103,1140,1240 MC KINLEY STREET,CANON CITY,CANON CITY RE-1,5704,MCKINLEY ELEMENTARY SCHOOL,E,221,N,N,0.20,0.57,0.23,N/A,Priority Improvement,0.40
39.6804758,-104.8431029,130,12400 EAST JEWELL AVENUE,AURORA,CHERRY CREEK 5,6625,OVERLAND HIGH SCHOOL,H,2306,N,N,0.76,0.64,0.12,0.17,Improvement,0.49
39.9227321,-104.995003,20,12400 HURON STREET,NORTHGLENN,ADAMS 12 FIVE STAR SCHOOLS,4187,SILVER HILLS MIDDLE SCHOOL,M,1100,N,N,0.59,0.57,0.12,0.17,Performance,0.55
39.9229872,-105.0403026,20,12401 PERRY STREET,BROOMFIELD,ADAMS 12 FIVE STAR SCHOOLS,6150,MOUNTAIN VIEW ELEMENTARY SCHOOL,E,646,N,N,0.33,0.26,0.16,0.12,Performance,0.73
39.719312,-104.841281,180,12445 EAST 2ND AVE,AURORA,ADAMS-ARAPAHOE 28J,5361,LYN KNOLL ELEMENTARY SCHOOL,E,291,N,N,0.90,0.80,0.13,0.63,Turnaround,0.33
39.949067,-105.819292,1350,125 EASTOM,FRASER,EAST GRAND 2,3182,FRASER VALLEY ELEMENTARY SCHOOL,E,249,N,N,0.18,0.26,0.07,0.12,Performance,0.77
39.7345078,-104.8087178,180,1250 CHAMBERS ROAD,AURORA,ADAMS-ARAPAHOE 28J,4024,HINKLEY HIGH SCHOOL,H,2184,N,N,0.92,0.75,0.12,0.38,Improvement,0.45
39.9249207,-104.9942699,20,12500 HURON STREET,WESTMINSTER,ADAMS 12 FIVE STAR SCHOOLS,6060,MOUNTAIN RANGE HIGH SCHOOL,H,1979,N,N,0.42,0.35,0.10,0.07,Performance,0.61
39.7354386,-104.8605305,180,1255 KENTON ST,AURORA,ADAMS-ARAPAHOE 28J,4646,KENTON ELEMENTARY SCHOOL,E,617,N,N,0.96,0.87,0.14,0.74,Turnaround,0.33
39.6933152,-105.0839649,1420,1255 SOUTH WADSWORTH BLVD,LAKEWOOD,JEFFERSON COUNTY R-1,108,ALAMEDA INTERNATIONAL JUNIOR/SENIOR HIGH SCHOOL,H,764,N,N,0.87,0.86,0.12,0.32,Performance,0.55
39.6933152,-105.0839649,1420,1255 SOUTH WADSWORTH BLVD,LAKEWOOD,JEFFERSON COUNTY R-1,108,ALAMEDA INTERNATIONAL JUNIOR/SENIOR HIGH SCHOOL,M,475,N,N,0.87,0.86,0.12,0.32,Improvement,0.43
39.7902192,-105.1411286,1420,12550 WEST 52ND AVENUE,ARVADA,JEFFERSON COUNTY R-1,2288,DRAKE JUNIOR HIGH SCHOOL,M,676,N,N,0.24,0.19,0.08,0.04,Performance,0.76
39.922247,-104.924342,20,12551 HOLLY STREET,THORNTON,ADAMS 12 FIVE STAR SCHOOLS,6342,SHADOW RIDGE MIDDLE SCHOOL,M,952,N,N,0.51,0.44,0.09,0.10,Performance,0.65
37.5050371,-105.0087361,1400,126 EAST GARLAND,LA VETA,LA VETA RE-2,4860,LA VETA ELEMENTARY SCHOOL,E,96,N,N,0.24,0.64,0.17,N/A,Performance,0.78
37.5050571,-105.0087661,1400,126 EAST GARLAND,LA VETA,LA VETA RE-2,4864,LA VETA JUNIOR-SENIOR HIGH SCHOOL,H,64,N,N,0.29,0.56,0.10,N/A,Performance,0.66
37.5050571,-105.0087661,1400,126 EAST GARLAND,LA VETA,LA VETA RE-2,4864,LA VETA JUNIOR-SENIOR HIGH SCHOOL,M,60,N,N,0.29,0.56,0.10,N/A,Improvement,0.49
40.1439944,-105.1736708,470,1260 MOUNTAIN DRIVE,LONGMONT,ST VRAIN VALLEY RE 1J,878,BLUE MOUNTAIN ELEMENTARY,E,594,N,N,0.23,0.10,0.12,0.09,Performance,0.68
39.6811346,-104.8398356,130,12600 EAST JEWELL AVE,AURORA,CHERRY CREEK 5,6619,PRAIRIE PRESCHOOL,E,133,N,N,0.81,N/A,0.38,N/A,N/A,N/A
39.6811346,-104.8398356,130,12600 EAST JEWELL AVENUE,AURORA,CHERRY CREEK 5,7158,PRAIRIE MIDDLE SCHOOL,M,1771,N,N,0.78,0.76,0.14,0.30,Improvement,0.46
39.6938794,-105.0961109,1420,1263 SOUTH DUDLEY STREET,LAKEWOOD,JEFFERSON COUNTY R-1,6808,PATTERSON INTERNATIONAL SCHOOL,E,424,N,N,0.50,0.53,0.11,0.09,Performance,0.71
39.6938794,-105.0961109,1420,1263 SOUTH DUDLEY STREET,LAKEWOOD,JEFFERSON COUNTY R-1,6808,PATTERSON INTERNATIONAL SCHOOL,M,57,N,N,0.50,0.53,0.11,0.09,Performance,0.71
38.3079376,-104.8027968,2700,1266 WEST ORO GRANDE DRIVE,PUEBLO WEST,PUEBLO COUNTY 70,1377,CEDAR RIDGE ELEMENTARY SCHOOL,E,505,N,N,0.34,0.23,0.14,0.02,Performance,0.66
39.4860432,-104.7835386,900,12736 SOUTH RED ROSA CIRCLE,PARKER,DOUGLAS COUNTY RE 1,5045,LEGACY POINT ELEMENTARY SCHOOL,E,457,N,N,0.20,0.16,0.16,0.04,Improvement,0.43
39.7345397,-104.8140458,180,1275 FRASER ST,AURORA,ADAMS-ARAPAHOE 28J,2384,EAST MIDDLE SCHOOL,M,1020,N,N,0.93,0.85,0.17,0.48,Performance,0.57
40.1841878,-104.9937208,470,12750 COUNTY ROAD #7,LONGMONT,ST VRAIN VALLEY RE 1J,5722,MEAD HIGH SCHOOL,H,1058,N,N,0.24,0.19,0.12,0.06,Performance,0.58
39.614077,-105.141591,1420,12776 WEST CROSS AVENUE,LITTLETON,JEFFERSON COUNTY R-1,6135,MOUNT CARBON ELEMENTARY SCHOOL,E,436,N,N,0.28,0.22,0.09,0.02,Performance,0.84
39.614077,-105.141591,1420,12776 WEST CROSS AVENUE,LITTLETON,JEFFERSON COUNTY R-1,6135,MOUNT CARBON ELEMENTARY SCHOOL,M,61,N,N,0.28,0.22,0.09,0.02,Performance,0.84
39.6815509,-105.1457012,1420,12900 WEST UTAH AVENUE,LAKEWOOD,JEFFERSON COUNTY R-1,4190,HUTCHINSON ELEMENTARY SCHOOL,E,306,N,N,0.24,0.24,0.10,0.06,Performance,0.54
39.6815509,-105.1457012,1420,12900 WEST UTAH AVENUE,LAKEWOOD,JEFFERSON COUNTY R-1,4190,HUTCHINSON ELEMENTARY SCHOOL,M,50,N,N,0.24,0.24,0.10,0.06,Performance,0.54
39.9161807,-104.83731,40,12909 E 120TH AVE,HENDERSON,SCHOOL DISTRICT 27J,7129,PRAIRIE VIEW HIGH SCHOOL,H,1968,N,N,0.55,0.33,0.09,0.09,Performance,0.53
39.9156017,-104.8339908,40,12915 EAST 120TH AVENUE,HENDERSON,SCHOOL DISTRICT 27J,7131,PRAIRIE VIEW MIDDLE SCHOOL,M,823,N,N,0.53,0.39,0.12,0.10,Improvement,0.49
37.4764898,-108.4946424,2055,12TH AND HILLSIDE,DOLORES,DOLORES RE-4A,2204,DOLORES ELEMENTARY SCHOOL,E,347,N,N,0.26,0.43,0.10,0.02,Turnaround,0.33
37.4764898,-108.4946424,2055,12TH AND HILLSIDE,DOLORES,DOLORES RE-4A,2204,DOLORES ELEMENTARY SCHOOL,M,52,N,N,0.26,0.43,0.10,0.02,Turnaround,0.33
39.2533914,-106.2948291,1510,130 WEST 12TH STREET,LEADVILLE,LAKE COUNTY R-1,9486,WESTPARK ELEMENTARY SCHOOL,E,205,N,N,0.70,0.65,0.11,0.46,Improvement,N/A
39.903344,-104.971721,20,1300 EAST MALLEY DRIVE,NORTHGLENN,ADAMS 12 FIVE STAR SCHOOLS,5418,MALLEY DRIVE ELEMENTARY SCHOOL,E,519,N,N,0.66,0.80,0.21,0.29,Improvement,0.49
39.080359,-104.8546429,1080,1300 HIGBY ROAD,MONUMENT,LEWIS-PALMER 38,5100,LEWIS-PALMER HIGH SCHOOL,H,1045,N,N,0.18,0.08,0.06,0.02,Performance,0.85
39.7423591,-105.5188858,540,1300 MINER STREET,IDAHO SPRINGS,CLEAR CREEK RE-1,4212,CARLSON ELEMENTARY SCHOOL,E,201,N,N,0.21,0.48,0.11,N/A,Improvement,0.51
39.7423591,-105.5188858,540,1300 MINER STREET,IDAHO SPRINGS,CLEAR CREEK RE-1,4212,CARLSON ELEMENTARY SCHOOL,M,29,N,N,0.21,0.48,0.11,N/A,Improvement,0.51
39.890399,-105.004282,20,1300 ROSEANNA DRIVE,NORTHGLENN,ADAMS 12 FIVE STAR SCHOOLS,9494,WESTVIEW ELEMENTARY SCHOOL,E,494,N,N,0.63,0.67,0.17,0.25,Performance,0.64
40.1441969,-105.1202111,470,1300 S. SUNSET,LONGMONT,ST VRAIN VALLEY RE 1J,5286,SUNSET MIDDLE SCHOOL,M,547,N,N,0.47,0.47,0.12,0.27,Improvement,0.50
39.6924959,-105.0339131,880,1300 SOUTH LOWELL BOULEVARD,DENVER,DENVER COUNTY 1,7694,CHARLES M. SCHENCK (CMS) COMMUNITY SCHOOL,E,336,N,N,0.99,0.94,0.12,0.83,Performance,0.58
39.693822,-104.8173983,180,1300 SOUTH SABLE BLVD,AURORA,ADAMS-ARAPAHOE 28J,3354,GATEWAY HIGH SCHOOL,H,1718,N,N,0.87,0.59,0.14,0.32,Priority Improvement,0.35
40.5472442,-105.1001174,1550,1300 WEST SWALLOW ROAD,FORT COLLINS,POUDRE R-1,7470,ROCKY MOUNTAIN HIGH SCHOOL,H,2025,N,N,0.24,0.29,0.10,0.03,Performance,0.63
39.9325443,-104.967331,20,13000 LAFAYETTE STREET,THORNTON,ADAMS 12 FIVE STAR SCHOOLS,1480,CENTURY MIDDLE SCHOOL,M,1021,N,N,0.38,0.33,0.10,0.06,Performance,0.63
39.7324504,-105.1445899,1420,13000 WEST 10TH AVENUE,GOLDEN,JEFFERSON COUNTY R-1,9342,WELCHESTER ELEMENTARY SCHOOL,E,241,N,N,0.40,0.64,0.12,0.12,Performance,0.62
39.7324504,-105.1445899,1420,13000 WEST 10TH AVENUE,GOLDEN,JEFFERSON COUNTY R-1,9342,WELCHESTER ELEMENTARY SCHOOL,M,42,N,N,0.40,0.64,0.12,0.12,Performance,0.62
39.759698,-104.8374194,180,13001 EAST 30TH AVE,AURORA,ADAMS-ARAPAHOE 28J,6758,PARK LANE ELEMENTARY SCHOOL,E,398,N,N,0.91,0.82,0.17,0.52,Improvement,0.48
37.476768,-108.493444,2055,1301 CENTRAL AVENUE,DOLORES,DOLORES RE-4A,2206,DOLORES MIDDLE SCHOOL,M,105,N,N,0.16,0.33,0.11,N/A,Improvement,0.25
37.476728,-108.493404,2055,1301 CENTRAL AVENUE,DOLORES,DOLORES RE-4A,2208,DOLORES HIGH SCHOOL,H,165,N,N,0.22,0.22,0.09,N/A,Improvement,0.54
40.0231851,-105.2796655,480,1301 HIGH STREET,BOULDER,BOULDER VALLEY RE 2,1352,CASEY MIDDLE SCHOOL,M,652,N,N,0.47,0.43,0.14,0.28,Performance,0.55
39.5401,-105.002743,900,1305 TIMBERVALE TRAIL,HIGHLANDS RANCH,DOUGLAS COUNTY RE 1,2656,ELDORADO ELEMENTARY SCHOOL,E,447,N,N,0.23,0.07,0.11,0.04,Improvement,0.48
39.5401,-105.002743,900,1305 TIMBERVALE TRAIL,HIGHLANDS RANCH,DOUGLAS COUNTY RE 1,2656,ELDORADO ELEMENTARY SCHOOL,M,75,N,N,0.23,0.07,0.11,0.04,Improvement,0.48
39.8909314,-104.8340353,40,13069 EAST 106TH PLACE,COMMERCE CITY,SCHOOL DISTRICT 27J,8820,TURNBERRY ELEMENTARY,E,887,N,N,0.50,0.23,0.10,0.10,Performance,0.76
39.9352273,-105.0074684,20,13095 PECOS STREET,WESTMINSTER,ADAMS 12 FIVE STAR SCHOOLS,301,ARAPAHOE RIDGE ELEMENTARY SCHOOL,E,624,N,N,0.41,0.41,0.08,0.15,Performance,0.71
37.3444703,-108.2910819,2070,131 S. WALNUT STREET,MANCOS,MANCOS RE-6,6179,MANCOS EARLY LEARNING CENTER,E,43,N,N,0.30,N/A,N/A,N/A,N/A,N/A
38.8518973,-104.7336666,1010,1310 LEHMBERG BOULEVARD,COLORADO SPRINGS,COLORADO SPRINGS 11,3920,HENRY ELEMENTARY SCHOOL,E,380,N,N,0.52,0.74,0.09,0.12,Performance,0.84
39.9345515,-104.9110213,40,13102 MONACO STREET,THORNTON,SCHOOL DISTRICT 27J,9426,WEST RIDGE ELEMENTARY,E,699,N,N,0.42,0.21,0.12,0.08,Performance,0.61
38.449779,-105.2329379,1140,1313 COLLEGE,CANON CITY,CANON CITY RE-1,1266,CANON CITY HIGH SCHOOL,H,1037,N,N,0.16,0.37,0.12,0.01,Performance,0.53
40.4176848,-104.6848353,3120,1315 4TH AVENUE,GREELEY,GREELEY 6,4425,JEFFERSON JUNIOR/SENIOR HIGH,H,488,Y,N,0.82,0.66,0.15,0.20,Turnaround,0.27
40.4176848,-104.6848353,3120,1315 4TH AVENUE,GREELEY,GREELEY 6,4425,JEFFERSON JUNIOR/SENIOR HIGH,M,44,Y,N,0.82,0.66,0.15,0.20,N/A,N/A
38.2898099,-104.588103,2690,1315 HORSESHOE DRIVE,PUEBLO,PUEBLO CITY 60,756,BENJAMIN FRANKLIN ELEMENTARY SCHOOL,E,409,N,N,0.78,0.88,0.09,0.05,Improvement,0.47
39.097941,-104.850706,1080,1315 LAKE WOODMOOR DRIVE,MONUMENT,LEWIS-PALMER 38,5096,LEWIS-PALMER ELEMENTARY SCHOOL,E,343,N,N,0.17,0.11,0.15,0.04,Performance,0.82
39.097941,-104.850706,1080,1315 LAKE WOODMOOR DRIVE,MONUMENT,LEWIS-PALMER 38,5096,LEWIS-PALMER ELEMENTARY SCHOOL,M,78,N,N,0.17,0.11,0.15,0.04,Performance,0.82
39.7033066,-105.1463675,1420,13165 WEST OHIO AVENUE,LAKEWOOD,JEFFERSON COUNTY R-1,3025,FOOTHILLS ELEMENTARY SCHOOL,E,268,N,N,0.44,0.67,0.15,0.13,Improvement,0.49
39.7033066,-105.1463675,1420,13165 WEST OHIO AVENUE,LAKEWOOD,JEFFERSON COUNTY R-1,3025,FOOTHILLS ELEMENTARY SCHOOL,M,46,N,N,0.44,0.67,0.15,0.13,Improvement,0.49
39.6934091,-105.1450723,1420,13175 W GREEN MOUNTAIN DRIVE,LAKEWOOD,JEFFERSON COUNTY R-1,3628,GREEN MOUNTAIN HIGH SCHOOL,H,1142,N,N,0.27,0.28,0.08,0.03,Performance,0.77
39.6799454,-104.9716663,880,1320 EAST ASBURY AVENUE,DENVER,DENVER COUNTY 1,388,ASBURY ELEMENTARY SCHOOL,E,357,N,N,0.32,0.33,0.13,0.11,Performance,0.75
40.5635807,-105.0526628,1550,1320 EAST STUART STREET,FORT COLLINS,POUDRE R-1,7350,RIFFENBURGH ELEMENTARY SCHOOL,E,491,N,N,0.25,0.32,0.07,0.06,Performance,0.91
39.759943,-105.149017,1420,13200 WEST 32ND PLACE,LAKEWOOD,JEFFERSON COUNTY R-1,5472,MANNING OPTIONS SCHOOL,M,443,N,N,0.18,0.07,N/A,0.01,Performance,0.86
39.9346579,-105.0228805,20,13200 WESTLAKE DRIVE,BROOMFIELD,ADAMS 12 FIVE STAR SCHOOLS,1388,CENTENNIAL ELEMENTARY SCHOOL,E,520,N,N,0.59,0.72,0.20,0.36,Performance,0.57
39.9365454,-104.9720504,20,13222 CORONA STREET,THORNTON,ADAMS 12 FIVE STAR SCHOOLS,2580,HUNTERS GLEN ELEMENTARY SCHOOL,E,510,N,N,0.38,0.27,0.14,0.14,Improvement,0.53
38.9227307,-104.8507533,1040,1325 VINDICATOR DRIVE,COLORADO SPRINGS,ACADEMY 20,2358,EAGLEVIEW MIDDLE SCHOOL,M,986,N,N,0.28,0.18,0.11,0.01,Performance,0.71
38.2761405,-104.5871846,2690,1327 EAST 9TH STREET,PUEBLO,PUEBLO CITY 60,6770,PARK VIEW ELEMENTARY SCHOOL,E,465,N,N,0.83,0.94,0.16,0.14,Priority Improvement,0.36
39.067202,-104.8417581,1080,1330 CREEKSIDE DRIVE,MONUMENT,LEWIS-PALMER 38,3539,BEAR CREEK ELEMENTARY SCHOOL,E,805,N,N,0.20,0.10,0.10,0.04,Performance,0.75
39.067202,-104.8417581,1080,1330 CREEKSIDE DRIVE,MONUMENT,LEWIS-PALMER 38,3539,BEAR CREEK ELEMENTARY SCHOOL,M,165,N,N,0.20,0.10,0.10,0.04,Performance,0.75
39.715176,-105.1500821,1420,13300 WEST 2ND PLACE,LAKEWOOD,JEFFERSON COUNTY R-1,9234,WARREN TECH CENTRAL,H,49,Y,N,0.02,N/A,N/A,N/A,Performance,N/A
39.7162219,-105.147542,1420,13301 WEST 2ND PLACE,LAKEWOOD,JEFFERSON COUNTY R-1,5623,LONGVIEW HIGH SCHOOL,H,52,Y,N,0.29,0.42,N/A,N/A,Performance,N/A
39.472878,-105.372884,1420,13304 SOUTH U S HIGHWAY 285,PINE,JEFFERSON COUNTY R-1,2616,ELK CREEK ELEMENTARY SCHOOL,E,315,N,N,0.10,0.17,0.09,0.03,Performance,0.98
39.0123735,-104.8033536,1040,1335 BRIDLE OAK LANE,COLORADO SPRINGS,ACADEMY 20,8813,THE DA VINCI ACADEMY SCHOOL,E,469,N,N,0.32,0.12,0.10,0.07,Performance,0.59
40.1431019,-105.117433,470,1335 SOUTH JUDSON,LONGMONT,ST VRAIN VALLEY RE 1J,4278,INDIAN PEAKS ELEMENTARY SCHOOL,E,333,N,N,0.98,0.95,0.17,0.83,Performance,0.57
39.8431137,-105.1498247,1420,13355 WEST 80TH AVENUE,ARVADA,JEFFERSON COUNTY R-1,7239,RALSTON VALLEY SENIOR HIGH SCHOOL,H,1821,N,N,0.17,0.08,0.06,0.01,Performance,0.87
39.6039171,-105.1495531,1420,13399 WEST COAL MINE AVENUE,LITTLETON,JEFFERSON COUNTY R-1,2093,DAKOTA RIDGE SENIOR HIGH SCHOOL,H,1527,N,N,0.25,0.16,0.08,0.02,Performance,0.77
39.8480028,-105.1506889,1420,13405 W 83RD PL,ARVADA,JEFFERSON COUNTY R-1,5758,MEIKLEJOHN ELEMENTARY,E,681,N,N,0.14,N/A,0.05,0.02,Performance,0.92
39.8480028,-105.1506889,1420,13405 W 83RD PL,ARVADA,JEFFERSON COUNTY R-1,5758,MEIKLEJOHN ELEMENTARY,M,106,N,N,0.14,N/A,0.05,0.02,Performance,0.92
39.9841723,-105.1328852,480,1341 MAIN STREET,LOUISVILLE,BOULDER VALLEY RE 2,5306,LOUISVILLE MIDDLE SCHOOL,M,643,N,N,0.20,0.15,0.13,0.06,Performance,0.72
39.7200905,-104.9711663,880,1350 E. 3rd Ave,DENVER,DENVER COUNTY 1,2223,DSST: COLE MIDDLE SCHOOL,M,461,N,Y,0.95,0.88,0.10,0.46,Improvement,0.53
39.7372753,-104.8005072,180,1350 LAREDO ST,AURORA,ADAMS-ARAPAHOE 28J,4973,LAREDO ELEMENTARY SCHOOL,E,503,N,N,0.89,0.83,0.12,0.59,Performance,0.53
39.5428909,-107.7947585,1195,1350 PREFONTAINE AVE,RIFLE,GARFIELD RE-2,7360,RIFLE HIGH SCHOOL,H,781,N,N,0.53,0.43,0.10,0.14,Performance,0.54
39.6919355,-105.1042933,1420,1350 SOUTH HOYT STREET,LAKEWOOD,JEFFERSON COUNTY R-1,4550,KENDRICK LAKES ELEMENTARY SCHOOL,E,398,N,N,0.37,0.35,0.06,0.08,Performance,0.85
39.6919355,-105.1042933,1420,1350 SOUTH HOYT STREET,LAKEWOOD,JEFFERSON COUNTY R-1,4550,KENDRICK LAKES ELEMENTARY SCHOOL,M,58,N,N,0.37,0.35,0.06,0.08,Performance,0.85
39.5574101,-104.8949021,900,13524 NORTH ACRES GREEN DRIVE,LITTLETON,DOUGLAS COUNTY RE 1,12,ACRES GREEN ELEMENTARY SCHOOL,E,582,N,N,0.51,0.24,0.15,0.19,Performance,0.69
39.5574101,-104.8949021,900,13524 NORTH ACRES GREEN DRIVE,LITTLETON,DOUGLAS COUNTY RE 1,12,ACRES GREEN ELEMENTARY SCHOOL,M,87,N,N,0.51,0.24,0.15,0.19,Performance,0.69
39.030378,-104.4972861,1060,13550 BRADSHAW ROAD,PEYTON,PEYTON 23 JT,6898,PEYTON ELEMENTARY SCHOOL,E,210,N,N,0.24,0.27,0.11,0.04,Performance,0.79
39.030378,-104.4972861,1060,13550 BRADSHAW ROAD,PEYTON,PEYTON 23 JT,6898,PEYTON ELEMENTARY SCHOOL,M,34,N,N,0.24,0.27,0.11,0.04,Performance,0.79
38.737943,-104.7229848,990,136 FONTAINE BOULEVARD,COLORADO SPRINGS,WIDEFIELD 3,9294,WATSON JUNIOR HIGH SCHOOL,M,710,N,N,0.47,0.50,0.13,0.03,Performance,0.55
39.203389,-108.811858,2000,1360  13 ROAD,LOMA,MESA COUNTY VALLEY 51,5244,LOMA ELEMENTARY SCHOOL,E,285,N,N,0.15,0.43,0.11,0.04,Performance,0.56
39.7163631,-105.1475152,1420,13600 WEST 2ND PLACE,LAKEWOOD,JEFFERSON COUNTY R-1,33,MC LAIN HIGH SCHOOL,H,384,Y,N,0.32,0.52,0.13,0.04,Turnaround,0.30
39.7163231,-105.1475552,1420,13600 WEST 2ND PLACE,LAKEWOOD,JEFFERSON COUNTY R-1,34,MC LAIN COMMUNITY HIGH SCHOOL,H,110,Y,N,0.44,0.40,0.05,0.07,Turnaround,0.25
39.7376117,-104.8623141,180,1365 JAMAICA STREET,AURORA,ADAMS-ARAPAHOE 28J,914,BOSTON K-8 SCHOOL,E,306,N,N,0.98,0.88,0.13,0.65,Turnaround,0.33
39.7376117,-104.8623141,180,1365 JAMAICA STREET,AURORA,ADAMS-ARAPAHOE 28J,914,BOSTON K-8 SCHOOL,M,109,N,N,0.98,0.88,0.13,0.65,Performance,0.74
39.6305625,-105.1507727,1420,13658 WEST MARLOWE AVENUE,MORRISON,JEFFERSON COUNTY R-1,4549,KENDALLVUE ELEMENTARY SCHOOL,E,433,N,N,0.28,0.36,0.16,0.05,Performance,0.75
39.6305625,-105.1507727,1420,13658 WEST MARLOWE AVENUE,MORRISON,JEFFERSON COUNTY R-1,4549,KENDALLVUE ELEMENTARY SCHOOL,M,54,N,N,0.28,0.36,0.16,0.05,Performance,0.75
39.030031,-104.701668,1040,13710 BLACK FOREST ROAD,COLORADO SPRINGS,ACADEMY 20,2524,EDITH WOLFORD ELEMENTARY SCHOOL,E,410,N,N,0.23,0.16,0.16,0.02,Performance,0.66
39.9463695,-105.0448393,20,13770 BROADLANDS DRIVE,BROOMFIELD,ADAMS 12 FIVE STAR SCHOOLS,1937,COYOTE RIDGE ELEMENTARY SCHOOL,E,568,N,N,0.18,0.06,0.08,0.05,Performance,0.75
39.9466744,-104.9443645,20,13801 GARFIELD PLACE,THORNTON,ADAMS 12 FIVE STAR SCHOOLS,7155,PRAIRIE HILLS ELEMENTARY SCHOOL,E,535,N,N,0.27,0.16,0.05,0.08,Performance,0.74
38.4915724,-107.8387107,2180,13820 6700 ROAD,MONTROSE,MONTROSE COUNTY RE-1J,4458,JOHNSON ELEMENTARY SCHOOL,E,577,N,N,0.46,0.63,0.15,0.17,Performance,0.54
39.3821066,-104.7483574,900,1384 NORTH STATE HIGHWAY 83 PO BOX 308,FRANKTOWN,DOUGLAS COUNTY RE 1,3172,FRANKTOWN ELEMENTARY SCHOOL,E,371,N,N,0.17,0.13,0.15,0.04,Improvement,0.50
39.7375367,-105.1053117,1420,1385 INDEPENDENCE STREET,LAKEWOOD,JEFFERSON COUNTY R-1,2550,EIBER ELEMENTARY SCHOOL,E,339,N,N,0.76,0.91,0.11,0.36,Improvement,0.53
39.7375367,-105.1053117,1420,1385 INDEPENDENCE STREET,LAKEWOOD,JEFFERSON COUNTY R-1,2550,EIBER ELEMENTARY SCHOOL,M,53,N,N,0.76,0.91,0.11,0.36,Improvement,0.53
39.0321631,-104.4970182,1060,13885 BRADSHAW ROAD,PEYTON,PEYTON 23 JT,6900,PEYTON JUNIOR HIGH SCHOOL,M,103,N,N,0.17,0.25,0.13,N/A,Priority Improvement,0.34
39.0321231,-104.4970582,1060,13885 BRADSHAW ROAD,PEYTON,PEYTON 23 JT,6902,PEYTON SENIOR HIGH SCHOOL,H,233,N,N,0.13,0.19,0.08,N/A,Performance,0.63
39.7466101,-105.1551181,1420,13950 WEST 20TH AVENUE,GOLDEN,JEFFERSON COUNTY R-1,8458,JOHN AND KAREN LITZ PRESCHOOL,E,78,N,N,0.15,N/A,N/A,N/A,N/A,N/A
38.4706399,-102.2165414,1440,13997 COUNTY ROAD 71,SHERIDAN LAKE,PLAINVIEW RE-2,6992,PLAINVIEW ELEMENTARY SCHOOL,E,34,N,N,0.15,0.62,N/A,N/A,Priority Improvement,0.38
38.4706799,-102.2165014,1440,13997 COUNTY ROAD 71,SHERIDAN LAKE,PLAINVIEW RE-2,7009,PLAINVIEW JUNIOR-SENIOR HIGH SCHOOL,H,22,N,N,0.10,0.59,N/A,N/A,Performance,0.75
38.4706799,-102.2165014,1440,13997 COUNTY ROAD 71,SHERIDAN LAKE,PLAINVIEW RE-2,7009,PLAINVIEW JUNIOR-SENIOR HIGH SCHOOL,M,7,N,N,0.10,0.59,N/A,N/A,Priority Improvement,0.38
40.3781807,-104.7024223,3120,1400  37TH STREET,EVANS,GREELEY 6,1384,CENTENNIAL ELEMENTARY SCHOOL,E,637,N,N,0.87,0.92,0.12,0.52,Priority Improvement,0.41
40.1840011,-105.0632819,470,1400 DEERWOOD DRIVE,LONGMONT,ST VRAIN VALLEY RE 1J,2912,FALL RIVER ELEMENTARY SCHOOL,E,582,N,N,0.25,0.20,0.13,0.07,Performance,0.63
40.4055119,-104.6565388,3120,1400 EAST 20TH STREET,GREELEY,GREELEY 6,54,BELLA ROMERO ACADEMY OF APPLIED TECHNOLOGY,E,747,N,N,0.89,0.87,0.11,0.46,Turnaround,0.32
40.4055119,-104.6565388,3120,1400 EAST 20TH STREET,GREELEY,GREELEY 6,54,BELLA ROMERO ACADEMY OF APPLIED TECHNOLOGY,M,385,N,N,0.89,0.87,0.11,0.46,Performance,0.53
40.591809,-105.1020874,1550,1400 MAPLE STREET,FORT COLLINS,POUDRE R-1,7218,PUTNAM ELEMENTARY SCHOOL,E,334,N,N,0.67,0.86,0.17,0.24,Performance,0.65
39.080294,-108.5632142,2000,1400 N 5TH ST,GRAND JUNCTION,MESA COUNTY VALLEY 51,3570,GRAND JUNCTION HIGH SCHOOL,H,1684,N,N,0.30,0.41,0.11,0.02,Improvement,0.57
38.7286109,-108.0495917,870,1400 PIONEER ROAD,DELTA,DELTA COUNTY 50(J),2164,DELTA HIGH SCHOOL,H,614,N,N,0.31,0.44,0.10,0.05,Performance,0.62
39.6906639,-104.7102992,180,1400 S OLD TOM MORRIS ROAD,AURORA,ADAMS-ARAPAHOE 28J,6189,MURPHY CREEK K-8 SCHOOL,E,475,N,N,0.61,0.35,0.12,0.14,Performance,0.70
39.6906639,-104.7102992,180,1400 S OLD TOM MORRIS ROAD,AURORA,ADAMS-ARAPAHOE 28J,6189,MURPHY CREEK K-8 SCHOOL,M,207,N,N,0.61,0.35,0.12,0.14,Performance,0.94
40.5681418,-105.0659091,1550,1400 STOVER STREET,FORT COLLINS,POUDRE R-1,5068,LESHER MIDDLE SCHOOL,M,769,N,N,0.37,0.38,0.05,0.11,Performance,0.54
39.690685,-105.066503,1420,1401 SOUTH KENDALL STREET,LAKEWOOD,JEFFERSON COUNTY R-1,5004,LASLEY ELEMENTARY SCHOOL,E,417,N,N,0.82,0.81,0.09,0.30,Performance,0.56
39.690685,-105.066503,1420,1401 SOUTH KENDALL STREET,LAKEWOOD,JEFFERSON COUNTY R-1,5004,LASLEY ELEMENTARY SCHOOL,M,62,N,N,0.82,0.81,0.09,0.30,Performance,0.56
39.5869344,-105.00364,140,1401 WEST GEDDES AVENUE,LITTLETON,LITTLETON 6,3930,HERITAGE HIGH SCHOOL,H,1637,N,N,0.22,0.14,0.10,0.01,Performance,0.75
39.9808138,-105.1097082,480,1405 CENTAUR VILLAGE DRIVE,LAFAYETTE,BOULDER VALLEY RE 2,7528,RYAN ELEMENTARY SCHOOL,E,466,N,N,0.32,0.33,0.20,0.08,Performance,0.81
39.5916078,-104.8252636,130,14076 EAST BRIARWOOD AVE,CENTENNIAL,CHERRY CREEK 5,2653,ENDEAVOR ACADEMY,H,274,Y,N,0.57,0.51,0.11,0.06,Improvement,0.26
38.8532731,-104.7458759,1010,1409 DE REAMER CIRCLE,COLORADO SPRINGS,COLORADO SPRINGS 11,9660,WILSON ELEMENTARY SCHOOL,E,421,N,N,0.65,0.91,0.09,0.37,Performance,0.55
37.2265291,-107.8647194,1520,141 BAKER LANE,DURANGO,DURANGO 9-R,7994,ESCALANTE MIDDLE SCHOOL,M,510,N,N,0.35,0.37,0.13,0.04,Improvement,0.50
37.2659796,-107.0200007,220,141 SOUTH 10TH STREET,PAGOSA SPRINGS,ARCHULETA COUNTY 50 JT,6652,PAGOSA SPRINGS ELEMENTARY SCHOOL,E,617,N,N,0.48,0.52,0.07,0.12,Improvement,0.45
38.216156,-108.569,2190,141 WEST MAIN STREET,NATURITA,WEST END RE-2,6196,NATURITA ELEMENTARY & MIDDLE SCHOOL,E,113,N,N,0.09,0.72,0.08,N/A,Priority Improvement,0.35
38.216156,-108.569,2190,141 WEST MAIN STREET,NATURITA,WEST END RE-2,6196,NATURITA ELEMENTARY & MIDDLE SCHOOL,M,57,N,N,0.09,0.72,0.08,N/A,Performance,0.79
39.6811457,-104.8246062,180,14100 EAST JEWELL AVENUE,AURORA,ADAMS-ARAPAHOE 28J,213,AXL ACADEMY,E,418,N,Y,0.79,0.67,0.07,0.33,Priority Improvement,0.40
39.6811457,-104.8246062,180,14100 EAST JEWELL AVENUE,AURORA,ADAMS-ARAPAHOE 28J,213,AXL ACADEMY,M,145,N,Y,0.79,0.67,0.07,0.33,Performance,0.68
40.1833671,-105.114726,470,1415  14TH STREET,LONGMONT,ST VRAIN VALLEY RE 1J,6156,MOUNTAIN VIEW ELEMENTARY SCHOOL,E,354,N,N,0.62,0.76,0.19,0.24,Performance,0.62
39.9515953,-104.9578235,20,14150 YORK STREET,THORNTON,ADAMS 12 FIVE STAR SCHOOLS,57,ROCKY TOP MIDDLE SCHOOL,M,1338,N,N,0.28,0.13,0.08,0.04,Performance,0.74
39.7387831,-104.7999092,180,1420 LAREDO ST,AURORA,ADAMS-ARAPAHOE 28J,2951,LAREDO CHILD DEVELOPMENT CENTER,E,302,N,N,0.92,N/A,0.25,N/A,N/A,N/A
39.6921947,-105.3496952,1420,1422 SUGARBUSH DRIVE,EVERGREEN,JEFFERSON COUNTY R-1,779,BERGEN VALLEY INTERMEDIATE SCHOOL,E,294,N,N,0.10,N/A,0.08,0.03,Performance,1.00
39.7762604,-104.8326748,880,14250 EAST ALBROOK DRIVE,DENVER,DENVER COUNTY 1,4140,FARRELL B. HOWELL ECE-8 SCHOOL,E,555,N,N,0.99,0.94,0.11,0.62,Performance,0.54
39.7762604,-104.8326748,880,14250 EAST ALBROOK DRIVE,DENVER,DENVER COUNTY 1,4140,FARRELL B. HOWELL ECE-8 SCHOOL,M,278,N,N,0.99,0.94,0.11,0.62,Priority Improvement,0.40
39.9547639,-105.0218225,20,14256 MCKAY PARK CIRCLE,BROOMFIELD,ADAMS 12 FIVE STAR SCHOOLS,59,MERIDIAN ELEMENTARY SCHOOL,E,782,N,N,0.22,0.04,0.06,0.05,Performance,0.91
39.6911562,-104.8522695,130,1433 SOUTH OAKLAND STREET,AURORA,CHERRY CREEK 5,9108,VILLAGE EAST COMMUNITY ELEMENTARY SCHOOL,E,740,N,N,0.82,0.73,0.13,0.48,Improvement,0.47
39.783358,-104.8237953,880,14390 EAST BOLLING DRIVE,DENVER,DENVER COUNTY 1,5644,MAXWELL ELEMENTARY SCHOOL,E,547,N,N,0.97,0.92,0.10,0.55,Performance,0.61
39.3067823,-102.4260554,1490,145 WEST 3RD,BETHUNE,BETHUNE R-5,842,BETHUNE PUBLIC SCHOOLS,E,46,N,N,0.37,0.79,0.12,0.25,Priority Improvement,0.38
39.3067823,-102.4260554,1490,145 WEST 3RD,BETHUNE,BETHUNE R-5,842,BETHUNE PUBLIC SCHOOLS,H,43,N,N,0.37,0.79,0.12,0.25,Performance,0.61
39.3067823,-102.4260554,1490,145 WEST 3RD,BETHUNE,BETHUNE R-5,842,BETHUNE PUBLIC SCHOOLS,M,21,N,N,0.37,0.79,0.12,0.25,Performance,0.62
38.9513283,-104.7909764,1040,1450 CHAPEL HILLS DRIVE,COLORADO SPRINGS,ACADEMY 20,209,ASPEN VALLEY CAMPUS,H,113,N,N,0.25,0.29,0.07,N/A,Performance,0.58
38.9513283,-104.7909764,1040,1450 CHAPEL HILLS DRIVE,COLORADO SPRINGS,ACADEMY 20,209,ASPEN VALLEY CAMPUS,M,56,N,N,0.25,0.29,0.07,N/A,Improvement,0.52
38.7834152,-104.8013958,980,1450 CHEYENNE MEADOWS ROAD,COLORADO SPRINGS,HARRISON 2,3522,FOX MEADOW MIDDLE SCHOOL,M,603,N,N,0.71,0.81,0.16,0.13,Performance,0.78
39.7925829,-104.8159765,880,14500 MAXWELL PLACE,DENVER,DENVER COUNTY 1,2205,DCIS AT FORD,E,472,N,N,0.97,0.91,0.07,0.60,Performance,0.68
39.8896975,-104.9688479,20,1451 EAST LEROY DRIVE,NORTHGLENN,ADAMS 12 FIVE STAR SCHOOLS,5058,LEROY DRIVE ELEMENTARY SCHOOL,E,464,N,N,0.63,0.77,0.11,0.21,Performance,0.56
38.6215213,-104.1668674,1120,14550 EDISON ROAD,YODER,EDISON 54 JT,2514,EDISON ELEMENTARY SCHOOL,E,52,N,N,0.06,0.72,N/A,N/A,Performance,0.88
38.6215413,-104.1668374,1120,14550 EDISON ROAD,YODER,EDISON 54 JT,2523,EDISON PREP,H,105,N,N,0.13,N/A,N/A,N/A,Insufficient State Data,N/A
38.6215413,-104.1668374,1120,14550 EDISON ROAD,YODER,EDISON 54 JT,2526,EDISON JUNIOR-SENIOR HIGH SCHOOL,H,42,N,N,0.10,0.67,N/A,N/A,Performance,0.89
38.6215413,-104.1668374,1120,14550 EDISON ROAD,YODER,EDISON 54 JT,2526,EDISON JUNIOR-SENIOR HIGH SCHOOL,M,31,N,N,0.10,0.67,N/A,N/A,Performance,0.85
38.7510632,-105.521041,2610,1459 MAIN STREET,GUFFEY,PARK COUNTY RE-2,3681,GUFFEY CHARTER SCHOOL,E,21,N,Y,0.07,0.57,N/A,N/A,Performance,0.63
38.7510632,-105.521041,2610,1459 MAIN STREET,GUFFEY,PARK COUNTY RE-2,3681,GUFFEY CHARTER SCHOOL,M,9,N,Y,0.07,0.57,N/A,N/A,N/A,N/A
39.6831287,-104.8178724,180,14601 EAST JEWELL AVE,AURORA,ADAMS-ARAPAHOE 28J,4426,JEWELL ELEMENTARY SCHOOL,E,470,N,N,0.82,0.74,0.09,0.37,Priority Improvement,0.41
39.381335,-104.904031,900,1470 CLEAR SKY WAY,CASTLE ROCK,DOUGLAS COUNTY RE 1,265,CLEAR SKY ELEMENTARY,E,661,N,N,0.26,0.17,0.13,0.08,Performance,0.65
39.381335,-104.904031,900,1470 CLEAR SKY WAY,CASTLE ROCK,DOUGLAS COUNTY RE 1,265,CLEAR SKY ELEMENTARY,M,128,N,N,0.26,0.17,0.13,0.08,Performance,0.65
39.632057,-104.8187284,130,14700 EAST TEMPLE PLACE,AURORA,CHERRY CREEK 5,7559,SAGEBRUSH ELEMENTARY SCHOOL,E,456,N,N,0.54,0.44,0.12,0.17,Performance,0.62
38.2973854,-104.5995702,2690,15 CHINOOK LANE,PUEBLO,PUEBLO CITY 60,3724,HAAFF ELEMENTARY SCHOOL,E,368,N,N,0.70,0.77,0.10,0.05,Improvement,0.49
38.8318373,-104.7655935,1010,15 SOUTH CHELTON ROAD,COLORADO SPRINGS,COLORADO SPRINGS 11,5988,MONROE ELEMENTARY SCHOOL,E,523,N,N,0.77,0.90,0.12,0.32,Priority Improvement,0.39
39.3687186,-104.8538648,900,15 SOUTH GILBERT STREET,CASTLE ROCK,DOUGLAS COUNTY RE 1,201,DANIEL C OAKES HIGH SCHOOL--CASTLE ROCK,H,161,Y,N,0.24,N/A,0.09,N/A,Performance,0.34
39.7136395,-104.9797376,880,150 S. Pearl St.,DENVER,DENVER COUNTY 1,2186,DSST: BYERS MIDDLE SCHOOL,M,469,N,Y,0.49,0.39,0.08,0.16,Performance,0.96
39.7136695,-104.9797176,880,150 SOUTH PEARL STREET,DENVER,DENVER COUNTY 1,2228,DSST: BYERS HIGH SCHOOL,H,133,N,Y,0.47,0.38,0.06,0.11,Performance,0.81
39.7136995,-104.9797576,880,150 SOUTH PEARL STREET,DENVER,DENVER COUNTY 1,2241,DENVER SCHOOL OF INNOVATION AND SUSTAINABLE DESIGN,H,169,N,N,0.54,0.46,0.14,0.12,Performance,0.95
40.1840412,-105.1177871,470,1500 14TH AVENUE,LONGMONT,ST VRAIN VALLEY RE 1J,5288,LONGS PEAK MIDDLE SCHOOL,M,419,N,N,0.67,0.77,0.18,0.29,Improvement,0.46
39.9272987,-104.9669807,20,1500 EAST 128TH AVENUE,THORNTON,ADAMS 12 FIVE STAR SCHOOLS,70,ADAMS12 FIVE STAR PRESCHOOL,E,319,N,N,0.73,N/A,0.22,0.46,N/A,N/A
39.537853,-107.765242,1195,1500 EAST 7TH STREET,RIFLE,GARFIELD RE-2,3967,HIGHLAND ELEMENTARY SCHOOL,E,438,N,N,0.60,0.66,0.13,0.40,Performance,0.68
39.9744308,-105.2449361,480,1500 KNOX DRIVE,BOULDER,BOULDER VALLEY RE 2,8135,SOUTHERN HILLS MIDDLE SCHOOL,M,559,N,N,0.21,0.06,0.10,0.02,Performance,0.81
38.2344253,-104.6297971,2690,1500 LAKEVIEW AVENUE,PUEBLO,PUEBLO CITY 60,2096,CORWIN INTERNATIONAL MAGNET SCHOOL,E,222,N,N,0.66,0.52,0.05,0.05,Performance,0.87
38.2344253,-104.6297971,2690,1500 LAKEVIEW AVENUE,PUEBLO,PUEBLO CITY 60,2096,CORWIN INTERNATIONAL MAGNET SCHOOL,M,428,N,N,0.66,0.52,0.05,0.05,Improvement,0.48
40.3704202,-105.4981582,1570,1500 MANFORD AVENUE,ESTES PARK,ESTES PARK R-3,2792,ESTES PARK MIDDLE SCHOOL,M,274,N,N,0.31,0.43,0.07,0.13,Performance,0.56
40.408209,-105.066998,1560,1500 MONROE AVENUE,LOVELAND,THOMPSON R2-J,5992,MONROE ELEMENTARY SCHOOL,E,227,N,N,0.51,0.75,0.19,0.23,Performance,0.65
40.0436232,-105.0660276,470,1500 TELLEEN AVE.,ERIE,ST VRAIN VALLEY RE 1J,5181,RED HAWK ELEMENTARY,E,814,N,N,0.19,0.07,0.10,0.03,Performance,0.68
40.5419566,-105.0508481,1550,1501 SPRINGWOOD DRIVE,FORT COLLINS,POUDRE R-1,7834,SHEPARDSON ELEMENTARY SCHOOL,E,413,N,N,0.17,0.22,0.14,0.02,Performance,0.80
39.5597583,-104.8136378,900,15035 COMPARK BLVD,PARKER,DOUGLAS COUNTY RE 1,6719,PARKER PERFORMING ARTS,E,565,N,Y,0.27,0.12,0.07,0.04,Improvement,0.48
39.5597583,-104.8136378,900,15035 COMPARK BLVD,PARKER,DOUGLAS COUNTY RE 1,6719,PARKER PERFORMING ARTS,M,238,N,Y,0.27,0.12,0.07,0.04,Improvement,0.48
40.3675639,-105.4992473,1570,1505 BRODIE AVENUE,ESTES PARK,ESTES PARK R-3,2790,ESTES PARK K-5 SCHOOL,E,518,N,N,0.33,0.46,0.08,0.21,Improvement,0.42
39.4120049,-107.2288947,1180,1505 SATANK ROAD,CARBONDALE,ROARING FORK RE-1,429,CARBONDALE COMMUNITY CHARTER SCHOOL,E,92,N,Y,0.17,0.13,0.08,0.04,Performance,0.75
39.4120049,-107.2288947,1180,1505 SATANK ROAD,CARBONDALE,ROARING FORK RE-1,429,CARBONDALE COMMUNITY CHARTER SCHOOL,M,42,N,Y,0.17,0.13,0.08,0.04,Performance,0.75
39.3656572,-107.0304775,1180,151 EAST COTTONWOOD DRIVE,BASALT,ROARING FORK RE-1,560,BASALT ELEMENTARY SCHOOL,E,621,N,N,0.61,0.42,0.05,0.41,Improvement,0.48
39.643808,-106.578943,910,151 MILLER RANCH ROAD,EDWARDS,EAGLE COUNTY RE 50,604,BATTLE MOUNTAIN HIGH SCHOOL,H,896,N,N,0.57,0.36,0.08,0.25,Improvement,0.57
38.9952892,-105.0446,3020,151 Panther Way,WOODLAND PARK,WOODLAND PARK RE-2,9696,WOODLAND PARK HIGH SCHOOL,H,761,N,N,0.15,0.27,0.08,0.01,Improvement,0.53
39.9712107,-104.9538305,20,15101 FILLMORE STRE,THORNTON,ADAMS 12 FIVE STAR SCHOOLS,7795,SILVER CREEK ELEMENTARY,E,610,N,N,0.26,0.11,0.08,0.05,Performance,0.86
40.4147682,-104.7030198,3120,1515  14TH AVENUE,GREELEY,GREELEY 6,3610,GREELEY CENTRAL HIGH SCHOOL,H,1451,N,N,0.73,0.69,0.09,0.22,Improvement,0.48
39.9725505,-105.2461925,480,1515 GREENBRIAR BOULEVARD,BOULDER,BOULDER VALLEY RE 2,2892,FAIRVIEW HIGH SCHOOL,H,2178,N,N,0.29,0.12,0.06,0.05,Performance,0.86
38.8108139,-104.7709013,980,1520 VERDE DRIVE,COLORADO SPRINGS,HARRISON 2,6936,PIKES PEAK ELEMENTARY SCHOOL,E,433,N,N,0.82,0.91,0.12,0.28,Performance,0.64
39.5381577,-107.3264886,1180,1521 GRAND AVENUE,GLENWOOD SPRINGS,ROARING FORK RE-1,3468,GLENWOOD SPRINGS HIGH SCHOOL,H,918,N,N,0.48,0.31,0.08,0.14,Performance,0.65
37.587638,-108.769987,2035,15238 COUNTY ROAD CC,PLEASANT VIEW,MONTEZUMA-CORTEZ RE-1,7082,PLEASANT VIEW ELEMENTARY SCHOOL,E,27,N,N,0.26,N/A,N/A,N/A,Insufficient State Data,N/A
39.7408799,-105.0433979,880,1526 TENNYSON STREET,DENVER,DENVER COUNTY 1,1774,COLFAX ELEMENTARY SCHOOL,E,319,N,N,0.91,0.95,0.13,0.42,Performance,0.51
39.0546125,-104.8264516,1040,15280 JESSIE DRIVE,COLORADO SPRINGS,ACADEMY 20,249,ANTELOPE TRAILS ELEMENTARY SCHOOL,E,386,N,N,0.22,0.13,0.11,N/A,Performance,0.77
39.7884226,-103.5179325,3070,15400 CO ROAD L,WOODROW,WOODLIN R-104,9700,WOODLIN ELEMENTARY SCHOOL,E,64,N,N,0.13,0.55,N/A,N/A,Improvement,0.50
39.7884626,-103.5179125,3070,15400 CO ROAD L,WOODROW,WOODLIN R-104,9704,WOODLIN UNDIVIDED HIGH SCHOOL,H,26,N,N,0.20,0.43,N/A,N/A,Performance,0.75
39.7884626,-103.5179125,3070,15400 CO ROAD L,WOODROW,WOODLIN R-104,9704,WOODLIN UNDIVIDED HIGH SCHOOL,M,23,N,N,0.20,0.43,N/A,N/A,Improvement,0.53
37.4773177,-108.490254,2055,1550 HILLSIDE AVENUE,DOLORES,DOLORES RE-4A,8500,TEDDY BEAR PRESCHOOL,E,64,N,N,0.28,N/A,N/A,N/A,N/A,N/A
39.6887811,-104.9495848,880,1550 SOUTH STEELE STREET,DENVER,DENVER COUNTY 1,1908,CORY ELEMENTARY SCHOOL,E,371,N,N,0.23,0.13,0.05,0.12,Performance,0.92
39.6888558,-105.0477246,880,1550 SOUTH WOLFF STREET,DENVER,DENVER COUNTY 1,3032,FORCE ELEMENTARY SCHOOL,E,570,N,N,0.94,0.91,0.13,0.54,Performance,0.65
39.6974555,-104.8074683,8001,15503 EAST MISSISSIPPI AVE UNIT B,AURORA,CHARTER SCHOOL INSTITUTE,5957,MONTESSORI DEL MUNDO CHARTER SCHOOL,E,271,N,Y,0.91,0.74,0.09,0.40,Performance,0.70
39.3835089,-104.871419,900,1551 PRAIRIE HAWK DRIVE,CASTLE ROCK,DOUGLAS COUNTY RE 1,11,ACADEMY CHARTER SCHOOL,E,562,N,Y,0.18,0.07,0.03,0.01,Performance,0.67
39.3835089,-104.871419,900,1551 PRAIRIE HAWK DRIVE,CASTLE ROCK,DOUGLAS COUNTY RE 1,11,ACADEMY CHARTER SCHOOL,M,234,N,Y,0.18,0.07,0.03,0.01,Performance,0.72
39.6885467,-104.9463348,880,1551 S.  MONROE ST,DENVER,DENVER COUNTY 1,3698,CREATIVITY CHALLENGE COMMUNITY,E,283,N,N,0.17,0.10,0.05,0.03,Performance,1.00
39.6885167,-104.9463748,880,1551 SOUTH MONROE STREET,DENVER,DENVER COUNTY 1,5826,MERRILL MIDDLE SCHOOL,M,554,N,N,0.49,0.50,0.13,0.33,Improvement,0.56
39.93753,-105.078181,480,1555 DAPHNE STREET,BROOMFIELD,BOULDER VALLEY RE 2,1066,BROOMFIELD HEIGHTS MIDDLE SCHOOL,M,520,N,N,0.33,0.28,0.14,0.07,Improvement,0.50
40.4297091,-105.0996856,1560,1555 WEST 37TH STREET,LOVELAND,THOMPSON R2-J,1385,CENTENNIAL ELEMENTARY SCHOOL,E,455,N,N,0.21,0.28,0.09,0.02,Performance,0.83
39.5404312,-104.8082166,900,15655 BROOKSTONE DRIVE,PARKER,DOUGLAS COUNTY RE 1,1503,CHAPARRAL HIGH SCHOOL,H,2205,N,N,0.25,0.13,0.11,0.03,Performance,0.74
39.5462299,-107.7614486,1195,1575 FARMSTEAD PARKWAY,RIFLE,GARFIELD RE-2,3281,GRAHAM MESA ELEMENTARY SCHOOL,E,375,N,N,0.40,0.55,0.12,0.22,Improvement,0.48
39.9722063,-105.2609968,480,1575 LEHIGH STREET,BOULDER,BOULDER VALLEY RE 2,5838,MESA ELEMENTARY SCHOOL,E,288,N,N,0.13,N/A,0.09,0.01,Performance,0.70
40.3547268,-105.5064706,1570,1575 SOUTH ST. VRAIN AVENUE,ESTES PARK,ESTES PARK R-3,2788,ESTES PARK OPTIONS SCHOOL,E,25,N,N,0.00,N/A,N/A,N/A,N/A,N/A
40.3547268,-105.5064706,1570,1575 SOUTH ST. VRAIN AVENUE,ESTES PARK,ESTES PARK R-3,2788,ESTES PARK OPTIONS SCHOOL,H,6,N,N,0.00,N/A,N/A,N/A,N/A,N/A
40.3547268,-105.5064706,1570,1575 SOUTH ST. VRAIN AVENUE,ESTES PARK,ESTES PARK R-3,2788,ESTES PARK OPTIONS SCHOOL,M,5,N,N,0.00,N/A,N/A,N/A,N/A,N/A
39.5827677,-106.0893596,3000,158 SCHOOL ROAD,FRISCO,SUMMIT RE-1,8375,SNOWY PEAKS HIGH SCHOOL,H,48,N,N,0.56,0.48,N/A,N/A,Improvement,0.40
39.5827277,-106.0893996,3000,158 SCHOOL ROAD,FRISCO,SUMMIT RE-1,8377,SUMMIT MIDDLE SCHOOL,M,756,N,N,0.35,0.30,0.12,0.21,Performance,0.57
39.741565,-105.030721,880,1580 JULIAN STREET,DENVER,DENVER COUNTY 1,1528,CHELTENHAM ELEMENTARY SCHOOL,E,396,N,N,0.96,0.97,0.08,0.34,Improvement,0.43
40.4844696,-104.9302888,3100,1583 GRAND AVENUE,WINDSOR,WINDSOR RE-4,55,GRANDVIEW ELEMENTARY SCHOOL,E,468,N,N,0.13,0.13,0.12,N/A,Performance,0.78
38.872971,-104.85758,1010,1590 WEST FILLMORE STREET,COLORADO SPRINGS,COLORADO SPRINGS 11,1870,CORONADO HIGH SCHOOL,H,1512,N,N,0.38,0.46,0.08,0.03,Performance,0.54
39.9796105,-104.8025893,40,1595 SOUTHERN STREET,BRIGHTON,SCHOOL DISTRICT 27J,8130,SOUTHEAST ELEMENTARY SCHOOL,E,502,N,N,0.62,0.57,0.12,0.21,Improvement,0.50
39.8816657,-104.802244,40,15955 EAST 101ST WAY,COMMERCE CITY,SCHOOL DISTRICT 27J,6702,OTHO E STUART MIDDLE SCHOOL,M,765,N,N,0.57,0.37,0.11,0.07,Performance,0.58
39.7882402,-105.1778275,1420,15975 WEST 50TH AVENUE,GOLDEN,JEFFERSON COUNTY R-1,2866,FAIRMOUNT ELEMENTARY SCHOOL,E,551,N,N,0.17,0.07,0.06,0.03,Performance,0.83
39.7882402,-105.1778275,1420,15975 WEST 50TH AVENUE,GOLDEN,JEFFERSON COUNTY R-1,2866,FAIRMOUNT ELEMENTARY SCHOOL,M,94,N,N,0.17,0.07,0.06,0.03,Performance,0.83
39.3945156,-107.2052906,1180,160 SNOWMASS DRIVE,CARBONDALE,ROARING FORK RE-1,2063,CRYSTAL RIVER ELEMENTARY SCHOOL,E,473,N,N,0.70,0.56,0.08,0.52,Improvement,0.43
39.741585,-104.9559827,880,1600 CITY PARK ESPLANADE,DENVER,DENVER COUNTY 1,2398,EAST HIGH SCHOOL,H,2543,N,N,0.54,0.32,0.07,0.07,Performance,0.71
39.7428642,-104.8710584,180,1600 FLORENCE ST,AURORA,ADAMS-ARAPAHOE 28J,1948,CRAWFORD ELEMENTARY SCHOOL,E,633,N,N,0.95,0.89,0.12,0.77,Priority Improvement,0.39
40.5994244,-105.1061185,1550,1600 LANCER DRIVE,FORT COLLINS,POUDRE R-1,5168,LINCOLN MIDDLE SCHOOL,M,532,N,N,0.55,0.69,0.15,0.23,Improvement,0.47
40.3699136,-105.4954609,1570,1600 MANFORD AVENUE,ESTES PARK,ESTES PARK R-3,2794,ESTES PARK HIGH SCHOOL,H,325,N,N,0.28,0.35,0.09,0.10,Performance,0.57
40.087249,-104.798842,3140,1600 NINTH STREET,FORT LUPTON,WELD COUNTY S/D RE-8,8930,TWOMBLY ELEMENTARY SCHOOL,E,542,N,N,0.76,0.70,0.11,0.40,Performance,0.53
38.8563513,-104.7954611,1010,1600 NORTH UNION BLVD,COLORADO SPRINGS,COLORADO SPRINGS 11,3360,GALILEO SCHOOL OF MATH AND SCIENCE,M,498,N,N,0.55,0.89,0.12,0.08,Priority Improvement,0.42
39.7939061,-104.8028805,880,16000 MAXWELL PLACE,DENVER,DENVER COUNTY 1,3340,LENA ARCHULETA ELEMENTARY SCHOOL,E,539,N,N,0.96,0.87,0.08,0.71,Performance,0.68
39.668121,-104.8035136,180,16001 EAST YALE AVE,AURORA,ADAMS-ARAPAHOE 28J,9756,YALE ELEMENTARY SCHOOL,E,461,N,N,0.75,0.70,0.16,0.32,Performance,0.61
40.1855335,-105.1481528,470,1601 NORTHWESTERN ROAD,LONGMONT,ST VRAIN VALLEY RE 1J,5284,LONGMONT ESTATES ELEMENTARY SCHOOL,E,359,N,N,0.28,0.36,0.19,0.07,Performance,0.72
38.8107369,-104.7506086,980,1602 SOUTH MURRAY BLVD,COLORADO SPRINGS,HARRISON 2,369,ATLAS PREPARATORY MIDDLE SCHOOL,M,500,N,Y,0.90,0.92,0.07,0.39,Performance,0.68
39.6000588,-104.9692937,140,1603 EAST EUCLID AVE,CENTENNIAL,LITTLETON 6,752,FRANKLIN ELEMENTARY SCHOOL,E,602,N,N,0.18,0.10,0.07,0.01,Performance,0.80
40.0139489,-105.2733809,480,1604 ARAPAHOE AVENUE,BOULDER,BOULDER VALLEY RE 2,924,BOULDER HIGH SCHOOL,H,1997,N,N,0.32,0.24,0.08,0.10,Improvement,0.80
39.993205,-104.801762,40,1605 LONGSPEAK,BRIGHTON,SCHOOL DISTRICT 27J,6395,NORTHEAST ELEMENTARY SCHOOL,E,599,N,N,0.70,0.57,0.16,0.28,Priority Improvement,0.41
39.6272751,-104.7998834,130,16100 EAST SMOKY HILL ROAD,AURORA,CHERRY CREEK 5,8020,SMOKY HILL HIGH SCHOOL,H,2086,N,N,0.56,0.37,0.12,0.06,Performance,0.64
39.5656881,-106.0560069,3000,16201 U S HIGHWAY 9,FRISCO,SUMMIT RE-1,8378,SUMMIT HIGH SCHOOL,H,915,N,N,0.36,0.29,0.10,0.19,Performance,0.72
38.7391863,-103.5352122,1810,16232 COUNTY ROAD 29,KARVAL,KARVAL RE-23,4502,KARVAL ELEMENTARY SCHOOL,E,30,N,N,0.00,0.71,N/A,N/A,Performance,0.61
38.7391463,-103.5356122,1810,16232 COUNTY ROAD 29,KARVAL,KARVAL RE-23,4506,KARVAL JUNIOR-SENIOR HIGH SCHOOL,H,9,N,N,0.00,N/A,N/A,N/A,Performance,1.00
38.7391463,-103.5356122,1810,16232 COUNTY ROAD 29,KARVAL,KARVAL RE-23,4506,KARVAL JUNIOR-SENIOR HIGH SCHOOL,M,8,N,N,0.00,N/A,N/A,N/A,N/A,N/A
39.5831137,-104.7999725,130,16251 E GEDDES AVENUE,CENTENNIAL,CHERRY CREEK 5,7277,RED HAWK RIDGE ELEMENTARY SCHOOL,E,710,N,N,0.55,0.40,0.20,0.19,Performance,0.70
38.8082909,-104.7525462,980,1626 S MURRAY BOULEVARD,COLORADO SPRINGS,HARRISON 2,4380,JAMES IRWIN CHARTER ELEMENTARY SCHOOL,E,536,N,Y,0.65,0.41,0.01,0.18,Performance,0.71
38.8082445,-104.7527052,980,1628 SOUTH MURRAY BLVD,COLORADO SPRINGS,HARRISON 2,469,ATLAS PREPARATORY HIGH SCHOOL,H,405,N,Y,0.84,0.87,0.09,0.34,Performance,0.60
38.2867976,-104.6341879,2690,1629 WEST 21ST,PUEBLO,PUEBLO CITY 60,4302,IRVING ELEMENTARY SCHOOL,E,379,N,N,0.78,0.98,0.16,0.09,Performance,0.57
38.2867976,-104.6341879,2690,1629 WEST 21ST,PUEBLO,PUEBLO CITY 60,4302,IRVING ELEMENTARY SCHOOL,M,23,N,N,0.78,0.98,0.16,0.09,Performance,0.57
39.7428847,-104.8485176,180,1635 PARIS ST,AURORA,ADAMS-ARAPAHOE 28J,6728,PARIS ELEMENTARY SCHOOL,E,408,N,N,0.96,0.89,0.08,0.72,Priority Improvement,0.40
39.7429644,-104.8137123,180,1650 ALTURA BLVD,AURORA,ADAMS-ARAPAHOE 28J,214,ALTURA ELEMENTARY SCHOOL,E,576,N,N,0.91,0.86,0.15,0.67,Improvement,0.47
38.7704258,-104.8062611,980,1650 CHARMWOOD DRIVE,COLORADO SPRINGS,HARRISON 2,6578,OTERO ELEMENTARY SCHOOL,E,364,N,N,0.62,0.66,0.14,0.06,Performance,0.69
39.6269452,-104.7971671,130,16500 E. SMOKEY HILL ROAD,AURORA,CHERRY CREEK 5,6367,OPTIONS SCHOOL,E,301,N,N,0.20,N/A,N/A,N/A,N/A,N/A
39.6269452,-104.7971671,130,16500 E. SMOKEY HILL ROAD,AURORA,CHERRY CREEK 5,6367,OPTIONS SCHOOL,H,83,N,N,0.20,N/A,N/A,N/A,N/A,N/A
39.6269452,-104.7971671,130,16500 E. SMOKEY HILL ROAD,AURORA,CHERRY CREEK 5,6367,OPTIONS SCHOOL,M,156,N,N,0.20,N/A,N/A,N/A,N/A,N/A
39.6211153,-104.7973296,130,16501 EAST PROGRESS DRIVE,AURORA,CHERRY CREEK 5,4280,INDIAN RIDGE ELEMENTARY SCHOOL,E,558,N,N,0.39,0.11,0.14,0.11,Performance,0.82
40.1863875,-105.1572517,470,1651 AIRPORT ROAD,LONGMONT,ST VRAIN VALLEY RE 1J,9430,WESTVIEW MIDDLE SCHOOL,M,756,N,N,0.28,0.28,0.12,0.06,Performance,0.67
39.6865425,-104.9325402,880,1651 SOUTH DAHLIA STREET,DENVER,DENVER COUNTY 1,2652,ELLIS ELEMENTARY SCHOOL,E,477,N,N,0.73,0.88,0.09,0.54,Performance,0.54
39.826067,-105.186817,1420,16650 WEST 72ND AVENUE,ARVADA,JEFFERSON COUNTY R-1,9429,WEST WOODS ELEMENTARY SCHOOL,E,689,N,N,0.15,0.04,0.04,0.05,Performance,0.83
39.826067,-105.186817,1420,16650 WEST 72ND AVENUE,ARVADA,JEFFERSON COUNTY R-1,9429,WEST WOODS ELEMENTARY SCHOOL,M,106,N,N,0.15,0.04,0.04,0.05,Performance,0.83
40.3878983,-105.1006483,1560,1669 EAGLE DRIVE,LOVELAND,THOMPSON R2-J,8824,THOMPSON VALLEY HIGH SCHOOL,H,1209,N,N,0.24,0.37,0.12,0.02,Performance,0.56
39.5370742,-104.7956939,900,16700 KEYSTONE BLVD,PARKER,DOUGLAS COUNTY RE 1,1579,NORTH STAR ACADEMY,E,484,N,Y,0.28,0.05,0.05,0.04,Performance,0.63
39.5370742,-104.7956939,900,16700 KEYSTONE BLVD,PARKER,DOUGLAS COUNTY RE 1,1579,NORTH STAR ACADEMY,M,197,N,Y,0.28,0.05,0.05,0.04,Performance,0.93
39.688306,-104.793345,180,16701 EAST IOWA AVE,AURORA,ADAMS-ARAPAHOE 28J,4270,IOWA ELEMENTARY SCHOOL,E,557,N,N,0.83,0.73,0.11,0.36,Performance,0.60
38.856085,-104.694259,1110,1675 WINNEBAGO ROAD,COLORADO SPRINGS,FALCON 49,1618,EVANS INTERNATIONAL ELEMENTARY SCHOOL,E,722,N,N,0.52,0.58,0.13,0.06,Performance,0.63
39.7424,-104.965345,880,1690 WILLIAMS STREET,DENVER,DENVER COUNTY 1,2188,DENVER CENTER FOR 21ST LEARNING AT WYMAN,H,194,Y,N,0.95,0.84,0.23,0.28,Priority Improvement,0.35
39.7424,-104.965345,880,1690 WILLIAMS STREET,DENVER,DENVER COUNTY 1,2188,DENVER CENTER FOR 21ST LEARNING AT WYMAN,M,26,Y,N,0.95,0.84,0.23,0.28,Performance,0.54
39.5463629,-104.7904512,900,16995 EAST CARLSON DRIVE,PARKER,DOUGLAS COUNTY RE 1,1512,CHALLENGE TO EXCELLENCE CHARTER SCHOOL,E,340,N,Y,0.34,0.06,0.05,0.10,Performance,0.85
39.5463629,-104.7904512,900,16995 EAST CARLSON DRIVE,PARKER,DOUGLAS COUNTY RE 1,1512,CHALLENGE TO EXCELLENCE CHARTER SCHOOL,M,157,N,Y,0.34,0.06,0.05,0.10,Performance,0.93
39.7564019,-104.9672035,880,1700 EAST 28TH AVENUE,DENVER,DENVER COUNTY 1,5448,MANUAL HIGH SCHOOL,H,279,N,N,0.94,0.89,0.24,0.23,Priority Improvement,0.43
39.6919063,-104.9661233,880,1700 EAST LOUISIANA AVENUE,DENVER,DENVER COUNTY 1,8086,SOUTH HIGH SCHOOL,H,1595,N,N,0.72,0.63,0.09,0.29,Improvement,0.62
39.6850379,-104.9213918,9130,1700 SOUTH HOLLY STREET,DENVER,EXPEDITIONARY BOCES,2840,ROCKY MOUNTAIN SCHOOL OF EXPEDITIONARY LEARNING,E,152,N,N,0.25,0.07,0.12,0.02,Performance,0.75
39.6850379,-104.9213918,9130,1700 SOUTH HOLLY STREET,DENVER,EXPEDITIONARY BOCES,2840,ROCKY MOUNTAIN SCHOOL OF EXPEDITIONARY LEARNING,H,93,N,N,0.25,0.07,0.12,0.02,Performance,0.82
39.6850379,-104.9213918,9130,1700 SOUTH HOLLY STREET,DENVER,EXPEDITIONARY BOCES,2840,ROCKY MOUNTAIN SCHOOL OF EXPEDITIONARY LEARNING,M,148,N,N,0.25,0.07,0.12,0.02,Performance,0.64
39.7460809,-104.757534,180,1701 ESPANA ST,AURORA,ADAMS-ARAPAHOE 28J,1720,CLYDE MILLER K-8,E,371,N,N,0.86,0.67,0.09,0.42,Performance,0.54
39.7460809,-104.757534,180,1701 ESPANA ST,AURORA,ADAMS-ARAPAHOE 28J,1720,CLYDE MILLER K-8,M,197,N,N,0.86,0.67,0.09,0.42,Performance,0.55
38.8588477,-104.7485947,8001,1702 N MURRAY BLVD,COLORADO SPRINGS,CHARTER SCHOOL INSTITUTE,3326,GLOBAL VILLAGE ACADEMY - COLORADO SPRINGS,E,404,N,Y,0.65,0.54,0.05,0.20,Performance,0.60
38.8588477,-104.7485947,8001,1702 N MURRAY BLVD,COLORADO SPRINGS,CHARTER SCHOOL INSTITUTE,3326,GLOBAL VILLAGE ACADEMY - COLORADO SPRINGS,M,60,N,Y,0.65,0.54,0.05,0.20,Improvement,0.52
38.5847599,-104.4624857,1070,17050 SOUTH PEYTON HIGHWAY,COLORADO SPRINGS,HANOVER 28,3758,HANOVER JUNIOR-SENIOR HIGH SCHOOL,H,70,N,N,0.36,0.67,0.19,0.12,Performance,0.53
38.5847599,-104.4624857,1070,17050 SOUTH PEYTON HIGHWAY,COLORADO SPRINGS,HANOVER 28,3758,HANOVER JUNIOR-SENIOR HIGH SCHOOL,M,65,N,N,0.36,0.67,0.19,0.12,Performance,0.64
38.2361881,-104.6201098,2690,1708 EAST ORMAN AVENUE,PUEBLO,PUEBLO CITY 60,5916,MINNEQUA ELEMENTARY SCHOOL,E,475,N,N,0.76,0.95,0.11,0.08,Turnaround,0.32
37.4629001,-105.8851256,100,1709 WEST 10TH STREET,ALAMOSA,ALAMOSA RE-11J,115,ALAMOSA ELEMENTARY SCHOOL,E,1158,N,N,0.72,0.68,0.11,0.17,Performance,0.58
39.7014312,-104.7862062,180,17101 EAST OHIO DRIVE,AURORA,ADAMS-ARAPAHOE 28J,9189,VANGUARD CLASSICAL SCHOOL - EAST,E,404,N,Y,0.73,0.57,0.10,0.30,Improvement,0.52
39.7014312,-104.7862062,180,17101 EAST OHIO DRIVE,AURORA,ADAMS-ARAPAHOE 28J,9189,VANGUARD CLASSICAL SCHOOL - EAST,H,118,N,Y,0.73,0.57,0.10,0.30,Performance,0.62
39.7014312,-104.7862062,180,17101 EAST OHIO DRIVE,AURORA,ADAMS-ARAPAHOE 28J,9189,VANGUARD CLASSICAL SCHOOL - EAST,M,199,N,Y,0.73,0.57,0.10,0.30,Performance,0.65
39.6567356,-105.1970609,1420,17199 HIGHWAY 74,MORRISON,JEFFERSON COUNTY R-1,7282,RED ROCKS ELEMENTARY SCHOOL,E,294,N,N,0.20,0.07,0.04,0.02,Performance,0.92
39.6567356,-105.1970609,1420,17199 HIGHWAY 74,MORRISON,JEFFERSON COUNTY R-1,7282,RED ROCKS ELEMENTARY SCHOOL,M,29,N,N,0.20,0.07,0.04,0.02,Performance,0.92
38.8583864,-104.8191983,1010,1720 NORTH WEBER STREET,COLORADO SPRINGS,COLORADO SPRINGS 11,8246,STEELE ELEMENTARY SCHOOL,E,297,N,N,0.23,0.25,0.05,N/A,Performance,0.74
40.5636093,-105.0305494,1550,1725 SHARP POINT DRIVE,FORT COLLINS,POUDRE R-1,5120,LIBERTY COMMON CHARTER SCHOOL,E,524,N,Y,0.13,0.02,0.01,0.01,Performance,0.67
40.5636093,-105.0305494,1550,1725 SHARP POINT DRIVE,FORT COLLINS,POUDRE R-1,5120,LIBERTY COMMON CHARTER SCHOOL,H,339,N,Y,0.13,0.02,0.01,0.01,Performance,0.95
40.5636093,-105.0305494,1550,1725 SHARP POINT DRIVE,FORT COLLINS,POUDRE R-1,5120,LIBERTY COMMON CHARTER SCHOOL,M,265,N,Y,0.13,0.02,0.01,0.01,Performance,0.70
39.6860138,-105.139526,1420,1725 SOUTH WRIGHT STREET,LAKEWOOD,JEFFERSON COUNTY R-1,2194,DEVINNY ELEMENTARY SCHOOL,E,467,N,N,0.22,0.16,0.07,0.07,Performance,0.90
39.6860138,-105.139526,1420,1725 SOUTH WRIGHT STREET,LAKEWOOD,JEFFERSON COUNTY R-1,2194,DEVINNY ELEMENTARY SCHOOL,M,87,N,N,0.22,0.16,0.07,0.07,Performance,0.90
39.6922832,-104.7852835,180,17301 EAST ARKANSAS AVE,AURORA,ADAMS-ARAPAHOE 28J,310,ARKANSAS ELEMENTARY SCHOOL,E,480,N,N,0.78,0.68,0.11,0.30,Improvement,0.49
39.5251969,-104.7873434,900,17302 CLARKE FARMS DRIVE,PARKER,DOUGLAS COUNTY RE 1,2233,CHEROKEE TRAIL ELEMENTARY SCHOOL,E,502,N,N,0.29,0.22,0.20,0.07,Performance,0.66
39.5251969,-104.7873434,900,17302 CLARKE FARMS DRIVE,PARKER,DOUGLAS COUNTY RE 1,2233,CHEROKEE TRAIL ELEMENTARY SCHOOL,M,63,N,N,0.29,0.22,0.20,0.07,Performance,0.66
39.531589,-105.0092471,900,1731 WILDCAT RESERVE PARKWAY,HIGHLANDS RANCH,DOUGLAS COUNTY RE 1,7245,RANCH VIEW MIDDLE SCHOOL,M,861,N,N,0.18,0.07,0.12,0.02,Improvement,0.45
39.4562575,-105.4726765,2600,1737 CR 43,BAILEY,PLATTE CANYON 1,7042,DEER CREEK ELEMENTARY SCHOOL,E,467,N,N,0.18,0.31,0.15,0.01,Performance,0.72
39.6488023,-104.7845644,130,17373 EAST LEHIGH PL,AURORA,CHERRY CREEK 5,1614,CIMARRON ELEMENTARY SCHOOL,E,490,N,N,0.63,0.56,0.12,0.16,Performance,0.65
39.8237153,-105.0093983,70,1740 JORDAN DRIVE,DENVER,WESTMINSTER PUBLIC SCHOOLS,3144,FRANCIS M. DAY ELEMENTARY SCHOOL,E,381,N,N,0.96,0.89,0.08,0.60,Priority Improvement,0.39
38.8073033,-104.7661146,980,1740 PEPPERWOOD DRIVE,COLORADO SPRINGS,HARRISON 2,1306,CARMEL MIDDLE SCHOOL,M,400,N,N,0.80,0.92,0.12,0.28,Priority Improvement,0.39
39.6597078,-104.7855167,180,17401 EAST DARTMOUTH AVE,AURORA,ADAMS-ARAPAHOE 28J,2095,DALTON ELEMENTARY SCHOOL,E,523,N,N,0.64,0.52,0.11,0.19,Performance,0.64
38.2374637,-104.6392244,2690,1745 ACERO,PUEBLO,PUEBLO CITY 60,7209,PUEBLO CHARTER SCHOOL FOR THE ARTS & SCIENCES,E,302,N,Y,0.72,0.67,0.08,0.02,Performance,0.53
38.2374637,-104.6392244,2690,1745 ACERO,PUEBLO,PUEBLO CITY 60,7209,PUEBLO CHARTER SCHOOL FOR THE ARTS & SCIENCES,M,149,N,Y,0.72,0.67,0.08,0.02,Performance,0.75
40.3017449,-105.0821098,1560,175 FIFTH STREET,BERTHOUD,THOMPSON R2-J,4332,IVY STOCKWELL ELEMENTARY SCHOOL,E,312,N,N,0.16,0.28,0.07,0.04,Performance,0.88
39.0062866,-105.0546346,3020,175 KELLEYS ROAD,WOODLAND PARK,WOODLAND PARK RE-2,9698,COLUMBINE ELEMENTARY SCHOOL,E,430,N,N,0.10,0.22,0.07,0.01,Performance,0.74
38.8630705,-104.7070009,1110,1750 PIROS DRIVE,COLORADO SPRINGS,FALCON 49,4102,HORIZON MIDDLE SCHOOL,M,709,N,N,0.51,0.49,0.12,0.05,Performance,0.66
39.6852227,-104.9798811,880,1751 SOUTH WASHINGTON STREET,DENVER,DENVER COUNTY 1,3600,GRANT BEACON MIDDLE SCHOOL,M,435,N,N,0.86,0.83,0.16,0.42,Performance,0.68
37.4317846,-105.4564983,740,17523 EAST HIGHWAY 160,BLANCA,SIERRA GRANDE R-30,7880,SIERRA GRANDE K-12 SCHOOL,E,127,N,N,0.79,0.90,0.06,0.12,Turnaround,0.25
37.4317846,-105.4564983,740,17523 EAST HIGHWAY 160,BLANCA,SIERRA GRANDE R-30,7880,SIERRA GRANDE K-12 SCHOOL,H,66,N,N,0.79,0.90,0.06,0.12,Performance,0.64
37.4317846,-105.4564983,740,17523 EAST HIGHWAY 160,BLANCA,SIERRA GRANDE R-30,7880,SIERRA GRANDE K-12 SCHOOL,M,74,N,N,0.79,0.90,0.06,0.12,Performance,0.53
39.6744191,-104.7794037,180,17599 EAST ILIFF AVE,AURORA,ADAMS-ARAPAHOE 28J,7250,RANGEVIEW HIGH SCHOOL,H,2309,N,N,0.75,0.45,0.09,0.16,Performance,0.58
39.6594677,-104.7828518,180,17600 EAST COLUMBIA AVE,AURORA,ADAMS-ARAPAHOE 28J,1800,COLUMBIA MIDDLE SCHOOL,M,796,N,N,0.70,0.56,0.14,0.18,Performance,0.56
39.1022076,-104.8606396,1080,1776 WOODMOOR DRIVE,MONUMENT,LEWIS-PALMER 38,5098,LEWIS-PALMER MIDDLE SCHOOL,M,856,N,N,0.17,0.09,0.08,0.03,Performance,0.69
37.2479085,-105.9688482,550,17889 US HWY 285,LA JARA,NORTH CONEJOS RE-1J,1378,CENTAURI HIGH SCHOOL,H,292,N,N,0.57,0.51,0.06,N/A,Performance,0.77
37.2535207,-105.9669847,550,17891 US HWY 285,LA JARA,NORTH CONEJOS RE-1J,1276,CENTAURI MIDDLE SCHOOL,M,216,N,N,0.57,0.62,0.07,N/A,Performance,0.85
39.626615,-104.779326,130,17901 EAST GRAND AVENUE,AURORA,CHERRY CREEK 5,5744,MEADOW POINT ELEMENTARY SCHOOL,E,563,N,N,0.56,0.57,0.18,0.14,Performance,0.54
39.39245,-107.2074795,1180,180 SNOWMASS DRIVE,CARBONDALE,ROARING FORK RE-1,1296,CARBONDALE MIDDLE SCHOOL,M,326,N,N,0.68,0.56,0.10,0.44,Performance,0.83
39.0850925,-108.5439629,2000,1800 ORCHARD AVE,GRAND JUNCTION,MESA COUNTY VALLEY 51,6554,ORCHARD AVENUE ELEMENTARY SCHOOL,E,391,N,N,0.27,0.61,0.14,0.02,Performance,0.57
39.9378562,-105.1565437,480,1800 SOUTH INDIANA ST.,SUPERIOR,BOULDER VALLEY RE 2,8418,SUPERIOR ELEMENTARY SCHOOL,E,465,N,N,0.23,0.05,0.08,0.02,Performance,0.85
40.5628491,-105.05733,1550,1800 SOUTH LEMAY AVENUE,FORT COLLINS,POUDRE R-1,146,RIDGEVIEW CLASSICAL CHARTER SCHOOLS,E,371,N,Y,0.24,0.08,0.03,0.02,Performance,0.68
40.5628491,-105.05733,1550,1800 SOUTH LEMAY AVENUE,FORT COLLINS,POUDRE R-1,146,RIDGEVIEW CLASSICAL CHARTER SCHOOLS,H,159,N,Y,0.24,0.08,0.03,0.02,Performance,0.95
40.5628491,-105.05733,1550,1800 SOUTH LEMAY AVENUE,FORT COLLINS,POUDRE R-1,146,RIDGEVIEW CLASSICAL CHARTER SCHOOLS,M,244,N,Y,0.24,0.08,0.03,0.02,Performance,0.69
40.500722,-104.8654579,3100,1801 AVERY PLAZA STREET,WINDSOR,WINDSOR RE-4,7755,SEVERANCE MIDDLE SCHOOL,M,527,N,N,0.23,0.18,0.07,0.02,Performance,0.64
39.7453469,-105.0256439,880,1801 FEDERAL BLVD,DENVER,DENVER COUNTY 1,7361,RISEUP COMMUNITY SCHOOL,H,124,Y,Y,0.95,0.79,0.12,0.29,Priority Improvement,0.25
38.2364631,-104.6557613,2690,1801 HOLLYWOOD DRIVE,PUEBLO,PUEBLO CITY 60,8082,SOUTH HIGH SCHOOL,H,1174,N,N,0.65,0.61,0.13,0.03,Improvement,0.52
38.85789,-104.78119,8001,1801 HOWARD AVENUE,COLORADO SPRINGS,CHARTER SCHOOL INSTITUTE,4403,JAMES IRWIN CHARTER ACADEMY,E,331,N,Y,0.50,0.53,0.06,0.10,Performance,0.61
38.807863,-104.859703,1020,1805 PRESERVE DRIVE,COLORADO SPRINGS,CHEYENNE MOUNTAIN 12,3482,GOLD CAMP ELEMENTARY SCHOOL,E,396,N,N,0.19,0.13,0.11,0.03,Performance,0.90
38.807863,-104.859703,1020,1805 PRESERVE DRIVE,COLORADO SPRINGS,CHEYENNE MOUNTAIN 12,3482,GOLD CAMP ELEMENTARY SCHOOL,M,74,N,N,0.19,0.13,0.11,0.03,Performance,0.90
38.8240728,-104.7935721,1010,1810 EASTLAKE BOULEVARD,COLORADO SPRINGS,COLORADO SPRINGS 11,5146,LIFE SKILLS CENTER OF COLORADO SPRINGS,H,306,Y,Y,0.63,0.45,0.14,0.04,Improvement,0.25
39.1597656,-108.7116783,2000,1810 J 6 ROAD,FRUITA,MESA COUNTY VALLEY 51,362,RIM ROCK ELEMENTARY SCHOOL,E,629,N,N,0.19,0.39,0.15,0.01,Improvement,0.45
39.0301287,-104.7965426,1040,1810 NORTH GATE BLVD,COLORADO SPRINGS,ACADEMY 20,1921,DISCOVERY CANYON CAMPUS MIDDLE SCHOOL,M,1027,N,N,0.28,0.11,0.08,0.02,Performance,0.80
39.0301787,-104.7965626,1040,1810 NORTH GATE BLVD,COLORADO SPRINGS,ACADEMY 20,1929,DISCOVERY CANYON CAMPUS ELEMENTARY SCHOOL,E,539,N,N,0.24,0.07,0.12,0.02,Performance,0.64
39.0301587,-104.7965026,1040,1810 NORTHGATE BOULEVARD,COLORADO SPRINGS,ACADEMY 20,2195,DISCOVERY CANYON CAMPUS HIGH SCHOOL,H,1195,N,N,0.24,0.08,0.07,0.01,Performance,0.76
